{
"type": "FeatureCollection",
"name": "医疗测评",
"crs": { "type": "name", "properties": { "name": "urn:ogc:def:crs:OGC:1.3:CRS84" } },
"features": [
{ "type": "Feature", "properties": { "id": 1, "name": "重庆市卫生和计划生育委员会", "type": "区域卫生信息互联互通标准化成熟度测评", "location": "106.50146645159629,29.596524422885455", "province": "重庆市", "city": "重庆市", "district": "渝北区", "year": "2013年", "level": "三级甲等", "level_type": "省级" }, "geometry": { "type": "Point", "coordinates": [ 106.501466451596286, 29.596524422885455 ] } },
{ "type": "Feature", "properties": { "id": 2, "name": "四川大学华西医院", "type": "医院信息互联互通标准化成熟度测评", "location": "104.05918434239457,30.644053685096402", "province": "四川省", "city": "成都市", "district": "武侯区", "year": "2013年", "level": "四级", "level_type": "" }, "geometry": { "type": "Point", "coordinates": [ 104.059184342394573, 30.644053685096402 ] } },
{ "type": "Feature", "properties": { "id": 3, "name": "上海市闸北区卫生和计划生育委员会", "type": "区域卫生信息互联互通标准化成熟度测评", "location": "121.45478478623579,31.248950131066163", "province": "上海市", "city": "上海市", "district": "静安区", "year": "2013年", "level": "四级甲等", "level_type": "地市级" }, "geometry": { "type": "Point", "coordinates": [ 121.454784786235791, 31.248950131066163 ] } },
{ "type": "Feature", "properties": { "id": 4, "name": "浙江大学医学院附属第一医院", "type": "医院信息互联互通标准化成熟度测评", "location": "120.16360285635722,30.25861358839962", "province": "浙江省", "city": "杭州市", "district": "上城区", "year": "2013年", "level": "四级甲等", "level_type": "" }, "geometry": { "type": "Point", "coordinates": [ 120.163602856357215, 30.258613588399619 ] } },
{ "type": "Feature", "properties": { "id": 5, "name": "舟山市卫生和计划生育局", "type": "区域卫生信息互联互通标准化成熟度测评", "location": "122.4458417392066,30.72787134075878", "province": "浙江省", "city": "舟山市", "district": "嵊泗县", "year": "2013年", "level": "三级甲等", "level_type": "地市级" }, "geometry": { "type": "Point", "coordinates": [ 122.4458417392066, 30.727871340758782 ] } },
{ "type": "Feature", "properties": { "id": 6, "name": "中国医科大学附属盛京医院", "type": "医院信息互联互通标准化成熟度测评", "location": "123.39749500149595,41.94298068376728", "province": "辽宁省", "city": "沈阳市", "district": "沈北新区", "year": "2013年", "level": "四级已等", "level_type": "" }, "geometry": { "type": "Point", "coordinates": [ 123.397495001495955, 41.942980683767281 ] } },
{ "type": "Feature", "properties": { "id": 7, "name": "无锡市中医医院", "type": "医院信息互联互通标准化成熟度测评", "location": "120.27746642638512,31.540616431888512", "province": "江苏省", "city": "无锡市", "district": "滨湖区", "year": "2013年", "level": "四级", "level_type": "" }, "geometry": { "type": "Point", "coordinates": [ 120.277466426385118, 31.540616431888512 ] } },
{ "type": "Feature", "properties": { "id": 8, "name": "杭州市卫生和计划生育委员会", "type": "区域卫生信息互联互通标准化成熟度测评", "location": "120.20519243447296,30.249909683958926", "province": "浙江省", "city": "杭州市", "district": "江干区", "year": "2014年", "level": "四级甲等", "level_type": "地市级" }, "geometry": { "type": "Point", "coordinates": [ 120.205192434472963, 30.249909683958926 ] } },
{ "type": "Feature", "properties": { "id": 9, "name": "中国医学科学院北京协和医院", "type": "医院信息互联互通标准化成熟度测评", "location": "116.40953157405683,39.91135665020021", "province": "北京市", "city": "北京市", "district": "东城区", "year": "2014年", "level": "四级甲等", "level_type": "" }, "geometry": { "type": "Point", "coordinates": [ 116.409531574056828, 39.911356650200212 ] } },
{ "type": "Feature", "properties": { "id": 10, "name": "芜湖市卫生和计划生育委员会", "type": "区域卫生信息互联互通标准化成熟度测评", "location": "118.42755963895839,31.35471093040426", "province": "安徽省", "city": "芜湖市", "district": [ ], "year": "2014年", "level": "四级甲等", "level_type": "地市级" }, "geometry": { "type": "Point", "coordinates": [ 118.427559638958385, 31.354710930404259 ] } },
{ "type": "Feature", "properties": { "id": 11, "name": "北京大学人民医院", "type": "医院信息互联互通标准化成熟度测评", "location": "116.3482384548437,39.934746114818665", "province": "北京市", "city": "北京市", "district": "西城区", "year": "2014年", "level": "四级甲等", "level_type": "" }, "geometry": { "type": "Point", "coordinates": [ 116.348238454843695, 39.934746114818665 ] } },
{ "type": "Feature", "properties": { "id": 12, "name": "佛山市卫生和计划生育局", "type": "区域卫生信息互联互通标准化成熟度测评", "location": "113.13263130336458,23.038989783317778", "province": "广东省", "city": "佛山市", "district": "南海区", "year": "2014年", "level": "四级甲等", "level_type": "地市级" }, "geometry": { "type": "Point", "coordinates": [ 113.132631303364576, 23.038989783317778 ] } },
{ "type": "Feature", "properties": { "id": 13, "name": "中国医科大学附属第一医院", "type": "医院信息互联互通标准化成熟度测评", "location": "123.40510629673314,41.79282429310273", "province": "辽宁省", "city": "沈阳市", "district": "和平区", "year": "2014年", "level": "四级甲等", "level_type": "" }, "geometry": { "type": "Point", "coordinates": [ 123.405106296733138, 41.792824293102733 ] } },
{ "type": "Feature", "properties": { "id": 14, "name": "江苏省常州市金坛区卫生和计划生育局", "type": "区域卫生信息互联互通标准化成熟度测评", "location": "119.5825935258587,31.724509234435004", "province": "江苏省", "city": "常州市", "district": "金坛区", "year": "2014年", "level": "四级乙等", "level_type": "地市级" }, "geometry": { "type": "Point", "coordinates": [ 119.582593525858698, 31.724509234435004 ] } },
{ "type": "Feature", "properties": { "id": 15, "name": "吉林市中心医院", "type": "医院信息互联互通标准化成熟度测评", "location": "126.55793575392825,43.839223183394765", "province": "吉林省", "city": "吉林市", "district": "船营区", "year": "2014年", "level": "四级甲等", "level_type": "" }, "geometry": { "type": "Point", "coordinates": [ 126.557935753928248, 43.839223183394765 ] } },
{ "type": "Feature", "properties": { "id": 16, "name": "广州市卫生和计划生育委员会", "type": "区域卫生信息互联互通标准化成熟度测评", "location": "113.25267569318626,23.134751215745194", "province": "广东省", "city": "广州市", "district": "越秀区", "year": "2014年", "level": "四级乙等", "level_type": "地市级" }, "geometry": { "type": "Point", "coordinates": [ 113.252675693186262, 23.134751215745194 ] } },
{ "type": "Feature", "properties": { "id": 17, "name": "上海市儿童医院", "type": "医院信息互联互通标准化成熟度测评", "location": "121.38262042219951,31.228428810431076", "province": "上海市", "city": "上海市", "district": "普陀区", "year": "2014年", "level": "四级甲等", "level_type": "" }, "geometry": { "type": "Point", "coordinates": [ 121.382620422199508, 31.228428810431076 ] } },
{ "type": "Feature", "properties": { "id": 18, "name": "重庆市巫山县卫生和计划生育委员会", "type": "区域卫生信息互联互通标准化成熟度测评", "location": "109.87657371798794,31.080514068588087", "province": "重庆市", "city": "重庆市", "district": "巫山县", "year": "2014年", "level": "四级乙等", "level_type": "地市级" }, "geometry": { "type": "Point", "coordinates": [ 109.876573717987938, 31.080514068588087 ] } },
{ "type": "Feature", "properties": { "id": 19, "name": "中国人民解放军总医院", "type": "医院信息互联互通标准化成熟度测评", "location": "109.70975075806376,18.29063568181628", "province": "海南省", "city": "三亚市", "district": [ ], "year": "2014年", "level": "四级乙等", "level_type": "" }, "geometry": { "type": "Point", "coordinates": [ 109.709750758063763, 18.29063568181628 ] } },
{ "type": "Feature", "properties": { "id": 20, "name": "湘潭市卫生和计划生育委员会", "type": "区域卫生信息互联互通标准化成熟度测评", "location": "112.9236111422839,27.83548939317389", "province": "湖南省", "city": "湘潭市", "district": "岳塘区", "year": "2014年", "level": "三级", "level_type": "地市级" }, "geometry": { "type": "Point", "coordinates": [ 112.923611142283903, 27.835489393173891 ] } },
{ "type": "Feature", "properties": { "id": 21, "name": "上海市第六人民医院", "type": "医院信息互联互通标准化成熟度测评", "location": "121.91704889987014,30.88829970741434", "province": "上海市", "city": "上海市", "district": "浦东新区", "year": "2014年", "level": "四级乙等", "level_type": "" }, "geometry": { "type": "Point", "coordinates": [ 121.917048899870139, 30.88829970741434 ] } },
{ "type": "Feature", "properties": { "id": 22, "name": "重庆市永川区卫生和计划生育委员会", "type": "区域卫生信息互联互通标准化成熟度测评", "location": "105.88323423815841,29.356210905650236", "province": "重庆市", "city": "重庆市", "district": "永川区", "year": "2014年", "level": "三级", "level_type": "地市级" }, "geometry": { "type": "Point", "coordinates": [ 105.883234238158408, 29.356210905650236 ] } },
{ "type": "Feature", "properties": { "id": 23, "name": "上海市同济医院", "type": "医院信息互联互通标准化成熟度测评", "location": "121.42607017773956,31.268191088987376", "province": "上海市", "city": "上海市", "district": "普陀区", "year": "2014年", "level": "四级乙等", "level_type": "" }, "geometry": { "type": "Point", "coordinates": [ 121.426070177739561, 31.268191088987376 ] } },
{ "type": "Feature", "properties": { "id": 24, "name": "玉溪市卫生和计划生育委员会", "type": "区域卫生信息互联互通标准化成熟度测评", "location": "102.52401040031546,24.362686037937074", "province": "云南省", "city": "玉溪市", "district": "红塔区", "year": "2014年", "level": "三级", "level_type": "地市级" }, "geometry": { "type": "Point", "coordinates": [ 102.524010400315461, 24.362686037937074 ] } },
{ "type": "Feature", "properties": { "id": 25, "name": "杭州市第一人民医院", "type": "医院信息互联互通标准化成熟度测评", "location": "120.16216764383114,30.257778970142244", "province": "浙江省", "city": "杭州市", "district": "上城区", "year": "2014年", "level": "四级乙等", "level_type": "" }, "geometry": { "type": "Point", "coordinates": [ 120.16216764383114, 30.257778970142244 ] } },
{ "type": "Feature", "properties": { "id": 26, "name": "中南大学湘雅三医院", "type": "医院信息互联互通标准化成熟度测评", "location": "112.9394599106596,28.222509811953497", "province": "湖南省", "city": "长沙市", "district": "岳麓区", "year": "2014年", "level": "四级乙等", "level_type": "" }, "geometry": { "type": "Point", "coordinates": [ 112.939459910659593, 28.222509811953497 ] } },
{ "type": "Feature", "properties": { "id": 27, "name": "北京市朝阳区卫生和计划生育委员会", "type": "区域卫生信息互联互通标准化成熟度测评", "location": "116.50496586591684,39.921251587292275", "province": "北京市", "city": "北京市", "district": "朝阳区", "year": "2015年", "level": "四级甲等", "level_type": "地市级" }, "geometry": { "type": "Point", "coordinates": [ 116.504965865916844, 39.921251587292275 ] } },
{ "type": "Feature", "properties": { "id": 28, "name": "上海市长宁区卫生和计划生育委员会", "type": "区域卫生信息互联互通标准化成熟度测评", "location": "121.41998693030979,31.222217905669627", "province": "上海市", "city": "上海市", "district": "长宁区", "year": "2015年", "level": "四级甲等", "level_type": "地市级" }, "geometry": { "type": "Point", "coordinates": [ 121.41998693030979, 31.222217905669627 ] } },
{ "type": "Feature", "properties": { "id": 29, "name": "中国医科大学附属第四医院", "type": "医院信息互联互通标准化成熟度测评", "location": "123.61906572492568,41.846615428741835", "province": "辽宁省", "city": "沈阳市", "district": "浑南区", "year": "2015年", "level": "四级甲等", "level_type": "" }, "geometry": { "type": "Point", "coordinates": [ 123.619065724925676, 41.846615428741835 ] } },
{ "type": "Feature", "properties": { "id": 30, "name": "上海市普陀区卫生和计划生育委员会", "type": "区域卫生信息互联互通标准化成熟度测评", "location": "121.38856201675809,31.24995693683667", "province": "上海市", "city": "上海市", "district": "普陀区", "year": "2015年", "level": "四级甲等", "level_type": "地市级" }, "geometry": { "type": "Point", "coordinates": [ 121.388562016758087, 31.249956936836671 ] } },
{ "type": "Feature", "properties": { "id": 31, "name": "大连大学附属中山医院", "type": "医院信息互联互通标准化成熟度测评", "location": "121.64342385135146,38.91549263382494", "province": "辽宁省", "city": "大连市", "district": "中山区", "year": "2015年", "level": "四级甲等", "level_type": "" }, "geometry": { "type": "Point", "coordinates": [ 121.643423851351457, 38.91549263382494 ] } },
{ "type": "Feature", "properties": { "id": 32, "name": "苏州市卫生和计划生育委员会", "type": "区域卫生信息互联互通标准化成熟度测评", "location": "120.6104760260821,31.347396858013372", "province": "江苏省", "city": "苏州市", "district": "姑苏区", "year": "2015年", "level": "四级甲等", "level_type": "地市级" }, "geometry": { "type": "Point", "coordinates": [ 120.610476026082097, 31.347396858013372 ] } },
{ "type": "Feature", "properties": { "id": 33, "name": "上海中医药大学附属龙华医院", "type": "医院信息互联互通标准化成熟度测评", "location": "121.44591055088591,31.189896548554398", "province": "上海市", "city": "上海市", "district": "徐汇区", "year": "2015年", "level": "四级甲等", "level_type": "" }, "geometry": { "type": "Point", "coordinates": [ 121.445910550885912, 31.189896548554398 ] } },
{ "type": "Feature", "properties": { "id": 34, "name": "宁波市卫生和计划生育委员会", "type": "区域卫生信息互联互通标准化成熟度测评", "location": "121.54079088475643,29.88523852692983", "province": "浙江省", "city": "宁波市", "district": "海曙区", "year": "2015年", "level": "四级甲等", "level_type": "地市级" }, "geometry": { "type": "Point", "coordinates": [ 121.540790884756433, 29.885238526929829 ] } },
{ "type": "Feature", "properties": { "id": 35, "name": "复旦大学附属儿科医院", "type": "医院信息互联互通标准化成熟度测评", "location": "121.39061366122125,31.14136068840737", "province": "上海市", "city": "上海市", "district": "闵行区", "year": "2015年", "level": "四级甲等", "level_type": "" }, "geometry": { "type": "Point", "coordinates": [ 121.390613661221252, 31.141360688407371 ] } },
{ "type": "Feature", "properties": { "id": 36, "name": "宁波市鄞州区卫生和计划生育局", "type": "区域卫生信息互联互通标准化成熟度测评", "location": "121.5491035911511,29.800756560044654", "province": "浙江省", "city": "宁波市", "district": "鄞州区", "year": "2015年", "level": "四级甲等", "level_type": "区县级" }, "geometry": { "type": "Point", "coordinates": [ 121.549103591151095, 29.800756560044654 ] } },
{ "type": "Feature", "properties": { "id": 37, "name": "江苏省人民医院", "type": "医院信息互联互通标准化成熟度测评", "location": "118.76200065593443,32.05118444500364", "province": "江苏省", "city": "南京市", "district": "鼓楼区", "year": "2015年", "level": "四级甲等", "level_type": "" }, "geometry": { "type": "Point", "coordinates": [ 118.762000655934429, 32.051184445003642 ] } },
{ "type": "Feature", "properties": { "id": 38, "name": "厦门市卫生和计划生育委员会", "type": "区域卫生信息互联互通标准化成熟度测评", "location": "118.0842038170165,24.455894276967715", "province": "福建省", "city": "厦门市", "district": "思明区", "year": "2015年", "level": "四级甲等", "level_type": "地市级" }, "geometry": { "type": "Point", "coordinates": [ 118.084203817016501, 24.455894276967715 ] } },
{ "type": "Feature", "properties": { "id": 39, "name": "南京市儿童医院", "type": "医院信息互联互通标准化成熟度测评", "location": "118.77416080512371,32.052803956133765", "province": "江苏省", "city": "南京市", "district": "鼓楼区", "year": "2015年", "level": "四级甲等", "level_type": "" }, "geometry": { "type": "Point", "coordinates": [ 118.774160805123714, 32.052803956133765 ] } },
{ "type": "Feature", "properties": { "id": 40, "name": "深圳市卫生和计划生育委员会", "type": "区域卫生信息互联互通标准化成熟度测评", "location": "114.09662742410877,22.54297267402512", "province": "广东省", "city": "深圳市", "district": "福田区", "year": "2015年", "level": "四级甲等", "level_type": "地市级" }, "geometry": { "type": "Point", "coordinates": [ 114.096627424108775, 22.542972674025119 ] } },
{ "type": "Feature", "properties": { "id": 41, "name": "福建医科大学附属第一医院", "type": "医院信息互联互通标准化成熟度测评", "location": "119.29708680520773,26.07300536403161", "province": "福建省", "city": "福州市", "district": "台江区", "year": "2015年", "level": "四级甲等", "level_type": "" }, "geometry": { "type": "Point", "coordinates": [ 119.297086805207726, 26.073005364031609 ] } },
{ "type": "Feature", "properties": { "id": 42, "name": "北京市通州区卫生和计划生育委员会", "type": "区域卫生信息互联互通标准化成熟度测评", "location": "116.65962947780122,39.90621902528758", "province": "北京市", "city": "北京市", "district": "通州区", "year": "2015年", "level": "四级乙等", "level_type": "地市级" }, "geometry": { "type": "Point", "coordinates": [ 116.659629477801218, 39.906219025287577 ] } },
{ "type": "Feature", "properties": { "id": 43, "name": "青岛大学附属医院", "type": "医院信息互联互通标准化成熟度测评", "location": "120.32275161651393,36.06672629729394", "province": "山东省", "city": "青岛市", "district": "市南区", "year": "2015年", "level": "四级甲等", "level_type": "" }, "geometry": { "type": "Point", "coordinates": [ 120.322751616513926, 36.06672629729394 ] } },
{ "type": "Feature", "properties": { "id": 44, "name": "鄂尔多斯市卫生和计划生育委员会", "type": "区域卫生信息互联互通标准化成熟度测评", "location": "109.77561440082094,39.607248126465", "province": "内蒙古自治区", "city": "鄂尔多斯市", "district": [ ], "year": "2015年", "level": "四级乙等", "level_type": "地市级" }, "geometry": { "type": "Point", "coordinates": [ 109.775614400820942, 39.607248126465002 ] } },
{ "type": "Feature", "properties": { "id": 45, "name": "郑州市儿童医院", "type": "医院信息互联互通标准化成熟度测评", "location": "113.65142015809214,34.76940675241798", "province": "河南省", "city": "郑州市", "district": "金水区", "year": "2015年", "level": "四级甲等", "level_type": "" }, "geometry": { "type": "Point", "coordinates": [ 113.651420158092137, 34.769406752417979 ] } },
{ "type": "Feature", "properties": { "id": 46, "name": "上海市松江区卫生和计划生育委员会", "type": "区域卫生信息互联互通标准化成熟度测评", "location": "121.21463323453871,31.027501982702834", "province": "上海市", "city": "上海市", "district": "松江区", "year": "2015年", "level": "四级乙等", "level_type": "地市级" }, "geometry": { "type": "Point", "coordinates": [ 121.214633234538709, 31.027501982702834 ] } },
{ "type": "Feature", "properties": { "id": 47, "name": "宁夏医科大学总医院", "type": "医院信息互联互通标准化成熟度测评", "location": "106.27241719703497,38.43309609155787", "province": "宁夏回族自治区", "city": "银川市", "district": "兴庆区", "year": "2015年", "level": "四级甲等", "level_type": "" }, "geometry": { "type": "Point", "coordinates": [ 106.272417197034969, 38.433096091557871 ] } },
{ "type": "Feature", "properties": { "id": 48, "name": "鄂州市卫生和计划生育委员会", "type": "区域卫生信息互联互通标准化成熟度测评", "location": "114.89431840249088,30.371895774072915", "province": "湖北省", "city": "鄂州市", "district": "鄂城区", "year": "2015年", "level": "四级乙等", "level_type": "地市级" }, "geometry": { "type": "Point", "coordinates": [ 114.894318402490882, 30.371895774072915 ] } },
{ "type": "Feature", "properties": { "id": 49, "name": "上海市公共卫生临床中心", "type": "医院信息互联互通标准化成熟度测评", "location": "121.54023530964989,31.29978697503357", "province": "上海市", "city": "上海市", "district": "杨浦区", "year": "2015年", "level": "四级乙等", "level_type": "" }, "geometry": { "type": "Point", "coordinates": [ 121.540235309649887, 31.29978697503357 ] } },
{ "type": "Feature", "properties": { "id": 50, "name": "珠海市卫生和计划生育局", "type": "区域卫生信息互联互通标准化成熟度测评", "location": "113.29711282538089,22.226435117209824", "province": "广东省", "city": "珠海市", "district": "斗门区", "year": "2015年", "level": "四级乙等", "level_type": "地市级" }, "geometry": { "type": "Point", "coordinates": [ 113.297112825380893, 22.226435117209824 ] } },
{ "type": "Feature", "properties": { "id": 51, "name": "重庆医科大学附属大学城医院", "type": "医院信息互联互通标准化成熟度测评", "location": "106.30258472059838,29.62053960692125", "province": "重庆市", "city": "重庆市", "district": "沙坪坝区", "year": "2015年", "level": "四级乙等", "level_type": "" }, "geometry": { "type": "Point", "coordinates": [ 106.302584720598375, 29.620539606921248 ] } },
{ "type": "Feature", "properties": { "id": 52, "name": "重庆市渝北区卫生和计划生育委员会", "type": "区域卫生信息互联互通标准化成熟度测评", "location": "106.62665828849975,29.72816230008924", "province": "重庆市", "city": "重庆市", "district": "渝北区", "year": "2015年", "level": "四级乙等", "level_type": "地市级" }, "geometry": { "type": "Point", "coordinates": [ 106.626658288499755, 29.728162300089242 ] } },
{ "type": "Feature", "properties": { "id": 53, "name": "四川大学华西第二医院", "type": "医院信息互联互通标准化成熟度测评", "location": "104.06347898387483,30.641823067758917", "province": "四川省", "city": "成都市", "district": "武侯区", "year": "2015年", "level": "四级乙等", "level_type": "" }, "geometry": { "type": "Point", "coordinates": [ 104.06347898387483, 30.641823067758917 ] } },
{ "type": "Feature", "properties": { "id": 54, "name": "赤峰市卫生和计划生育委员会", "type": "区域卫生信息互联互通标准化成熟度测评", "location": "118.88714286152967,42.25640467588686", "province": "内蒙古自治区", "city": "赤峰市", "district": "松山区", "year": "2015年", "level": "三级", "level_type": "地市级" }, "geometry": { "type": "Point", "coordinates": [ 118.887142861529668, 42.256404675886863 ] } },
{ "type": "Feature", "properties": { "id": 55, "name": "昆明医科大学第二附属医院", "type": "医院信息互联互通标准化成熟度测评", "location": "102.67944571146757,25.056518145391408", "province": "云南省", "city": "昆明市", "district": "五华区", "year": "2015年", "level": "四级乙等", "level_type": "" }, "geometry": { "type": "Point", "coordinates": [ 102.679445711467565, 25.056518145391408 ] } },
{ "type": "Feature", "properties": { "id": 56, "name": "重庆市渝中区卫生和计划生育委员会", "type": "区域卫生信息互联互通标准化成熟度测评", "location": "106.56519844676498,29.555630743889594", "province": "重庆市", "city": "重庆市", "district": "渝中区", "year": "2015年", "level": "三级", "level_type": "地市级" }, "geometry": { "type": "Point", "coordinates": [ 106.565198446764981, 29.555630743889594 ] } },
{ "type": "Feature", "properties": { "id": 57, "name": "重庆市渝北区人民医院", "type": "医院信息互联互通标准化成熟度测评", "location": "106.62210574113551,29.71803343746437", "province": "重庆市", "city": "重庆市", "district": "渝北区", "year": "2015年", "level": "三级", "level_type": "" }, "geometry": { "type": "Point", "coordinates": [ 106.622105741135513, 29.718033437464371 ] } },
{ "type": "Feature", "properties": { "id": 58, "name": "重庆市大渡口区卫生和计划生育委员会", "type": "区域卫生信息互联互通标准化成熟度测评", "location": "106.46786781206765,29.459653087775425", "province": "重庆市", "city": "重庆市", "district": "大渡口区", "year": "2015年", "level": "三级", "level_type": "地市级" }, "geometry": { "type": "Point", "coordinates": [ 106.467867812067652, 29.459653087775425 ] } },
{ "type": "Feature", "properties": { "id": 59, "name": "重庆市巫山县人民医院", "type": "医院信息互联互通标准化成熟度测评", "location": "109.8581581621702,31.064571010562265", "province": "重庆市", "city": "重庆市", "district": "巫山县", "year": "2015年", "level": "三级", "level_type": "" }, "geometry": { "type": "Point", "coordinates": [ 109.858158162170199, 31.064571010562265 ] } },
{ "type": "Feature", "properties": { "id": 60, "name": "重庆市沙坪坝区卫生和计划生育委员会", "type": "区域卫生信息互联互通标准化成熟度测评", "location": "106.45472061814958,29.541302818523473", "province": "重庆市", "city": "重庆市", "district": "沙坪坝区", "year": "2015年", "level": "三级", "level_type": "地市级" }, "geometry": { "type": "Point", "coordinates": [ 106.45472061814958, 29.541302818523473 ] } },
{ "type": "Feature", "properties": { "id": 61, "name": "成都市卫生和计划生育委员会", "type": "区域卫生信息互联互通标准化成熟度测评", "location": "104.0628041402462,30.578697755093742", "province": "四川省", "city": "成都市", "district": "武侯区", "year": "2015年", "level": "三级", "level_type": "地市级" }, "geometry": { "type": "Point", "coordinates": [ 104.0628041402462, 30.578697755093742 ] } },
{ "type": "Feature", "properties": { "id": 62, "name": "昆明市卫生和计划生育委员会", "type": "区域卫生信息互联互通标准化成熟度测评", "location": "102.83147479249219,24.883164207229008", "province": "云南省", "city": "昆明市", "district": [ ], "year": "2015年", "level": "三级", "level_type": "地市级" }, "geometry": { "type": "Point", "coordinates": [ 102.831474792492187, 24.883164207229008 ] } },
{ "type": "Feature", "properties": { "id": 63, "name": "张家港市卫生和计划生育委员会", "type": "区域卫生信息互联互通标准化成熟度测评", "location": "120.55945322282447,31.87032546467911", "province": "江苏省", "city": "苏州市", "district": "张家港市", "year": "2016年", "level": "五级乙等", "level_type": "区县级" }, "geometry": { "type": "Point", "coordinates": [ 120.559453222824473, 31.870325464679109 ] } },
{ "type": "Feature", "properties": { "id": 64, "name": "北京医院", "type": "医院信息互联互通标准化成熟度测评", "location": "116.40939264525525,39.902048972678735", "province": "北京市", "city": "北京市", "district": "东城区", "year": "2016年", "level": "四级甲等", "level_type": "" }, "geometry": { "type": "Point", "coordinates": [ 116.409392645255252, 39.902048972678735 ] } },
{ "type": "Feature", "properties": { "id": 65, "name": "上海市徐汇区卫生和计划生育委员会", "type": "区域卫生信息互联互通标准化成熟度测评", "location": "121.43325116533349,31.201068086297035", "province": "上海市", "city": "上海市", "district": "徐汇区", "year": "2016年", "level": "四级甲等", "level_type": "地市级" }, "geometry": { "type": "Point", "coordinates": [ 121.433251165333488, 31.201068086297035 ] } },
{ "type": "Feature", "properties": { "id": 66, "name": "首都医科大学附属北京儿童医院", "type": "医院信息互联互通标准化成熟度测评", "location": "116.34836820462978,39.91107288183799", "province": "北京市", "city": "北京市", "district": "西城区", "year": "2016年", "level": "四级甲等", "level_type": "" }, "geometry": { "type": "Point", "coordinates": [ 116.348368204629779, 39.911072881837988 ] } },
{ "type": "Feature", "properties": { "id": 67, "name": "上海市嘉定区卫生和计划生育委员会", "type": "区域卫生信息互联互通标准化成熟度测评", "location": "121.25217635553943,31.386641593910795", "province": "上海市", "city": "上海市", "district": "嘉定区", "year": "2016年", "level": "四级甲等", "level_type": "地市级" }, "geometry": { "type": "Point", "coordinates": [ 121.252176355539433, 31.386641593910795 ] } },
{ "type": "Feature", "properties": { "id": 68, "name": "复旦大学附属肿瘤医院", "type": "医院信息互联互通标准化成熟度测评", "location": "121.44898896798158,31.193577196498318", "province": "上海市", "city": "上海市", "district": "徐汇区", "year": "2016年", "level": "四级甲等", "level_type": "" }, "geometry": { "type": "Point", "coordinates": [ 121.448988967981578, 31.193577196498318 ] } },
{ "type": "Feature", "properties": { "id": 69, "name": "上海市崇明区卫生和计划生育委员会", "type": "区域卫生信息互联互通标准化成熟度测评", "location": "121.39798429695455,31.622372692015297", "province": "上海市", "city": "上海市", "district": "崇明区", "year": "2016年", "level": "四级甲等", "level_type": "地市级" }, "geometry": { "type": "Point", "coordinates": [ 121.397984296954547, 31.622372692015297 ] } },
{ "type": "Feature", "properties": { "id": 70, "name": "常熟市卫生和计划生育委员会", "type": "区域卫生信息互联互通标准化成熟度测评", "location": "120.779777132752,31.632829528564947", "province": "江苏省", "city": "苏州市", "district": "常熟市", "year": "2016年", "level": "四级甲等", "level_type": "区县级" }, "geometry": { "type": "Point", "coordinates": [ 120.779777132752002, 31.632829528564947 ] } },
{ "type": "Feature", "properties": { "id": 71, "name": "上海市第十人民医院", "type": "医院信息互联互通标准化成熟度测评", "location": "121.44910441390898,31.272939893677304", "province": "上海市", "city": "上海市", "district": "静安区", "year": "2016年", "level": "四级甲等", "level_type": "" }, "geometry": { "type": "Point", "coordinates": [ 121.449104413908984, 31.272939893677304 ] } },
{ "type": "Feature", "properties": { "id": 72, "name": "重庆市巴南区卫生和计划生育委员会", "type": "区域卫生信息互联互通标准化成熟度测评", "location": "106.53654930930144,29.405283366731286", "province": "重庆市", "city": "重庆市", "district": "巴南区", "year": "2016年", "level": "四级乙等", "level_type": "地市级" }, "geometry": { "type": "Point", "coordinates": [ 106.536549309301435, 29.405283366731286 ] } },
{ "type": "Feature", "properties": { "id": 73, "name": "上海交通大学医学院附属第九人民医院", "type": "医院信息互联互通标准化成熟度测评", "location": "121.48191345040394,31.204398561396875", "province": "上海市", "city": "上海市", "district": "黄浦区", "year": "2016年", "level": "四级甲等", "level_type": "" }, "geometry": { "type": "Point", "coordinates": [ 121.481913450403937, 31.204398561396875 ] } },
{ "type": "Feature", "properties": { "id": 74, "name": "重庆市长寿区卫生和计划生育委员会", "type": "区域卫生信息互联互通标准化成熟度测评", "location": "107.06129500509745,29.83335793003552", "province": "重庆市", "city": "重庆市", "district": "长寿区", "year": "2016年", "level": "四级乙等", "level_type": "地市级" }, "geometry": { "type": "Point", "coordinates": [ 107.061295005097449, 29.833357930035518 ] } },
{ "type": "Feature", "properties": { "id": 75, "name": "上海市中医医院", "type": "医院信息互联互通标准化成熟度测评", "location": "121.46661119675983,31.26141632302916", "province": "上海市", "city": "上海市", "district": "静安区", "year": "2016年", "level": "四级乙等", "level_type": "" }, "geometry": { "type": "Point", "coordinates": [ 121.466611196759828, 31.26141632302916 ] } },
{ "type": "Feature", "properties": { "id": 76, "name": "浙江大学医学院附属第四医院", "type": "医院信息互联互通标准化成熟度测评", "location": "120.07901683674838,30.2990981892472", "province": "浙江省", "city": "杭州市", "district": "西湖区", "year": "2016年", "level": "四级乙等", "level_type": "" }, "geometry": { "type": "Point", "coordinates": [ 120.07901683674838, 30.2990981892472 ] } },
{ "type": "Feature", "properties": { "id": 77, "name": "公安县中医医院", "type": "医院信息互联互通标准化成熟度测评", "location": "112.21747002023962,30.058627609315383", "province": "湖北省", "city": "荆州市", "district": "公安县", "year": "2016年", "level": "四级乙等", "level_type": "" }, "geometry": { "type": "Point", "coordinates": [ 112.217470020239617, 30.058627609315383 ] } },
{ "type": "Feature", "properties": { "id": 78, "name": "厦门市卫生和计划生育委员会", "type": "区域卫生信息互联互通标准化成熟度测评", "location": "118.0842038170165,24.455894276967715", "province": "福建省", "city": "厦门市", "district": "思明区", "year": "2017年", "level": "五级乙等", "level_type": "地市级" }, "geometry": { "type": "Point", "coordinates": [ 118.084203817016501, 24.455894276967715 ] } },
{ "type": "Feature", "properties": { "id": 79, "name": "北京大学第三医院", "type": "医院信息互联互通标准化成熟度测评", "location": "116.35379986788818,39.98135439925972", "province": "北京市", "city": "北京市", "district": "海淀区", "year": "2017年", "level": "五级乙等", "level_type": "" }, "geometry": { "type": "Point", "coordinates": [ 116.353799867888185, 39.981354399259722 ] } },
{ "type": "Feature", "properties": { "id": 80, "name": "浙江省长兴县卫生和计划生育局", "type": "区域卫生信息互联互通标准化成熟度测评", "location": "119.9063390691038,31.02900045048161", "province": "浙江省", "city": "湖州市", "district": "长兴县", "year": "2017年", "level": "五级乙等", "level_type": "区县级" }, "geometry": { "type": "Point", "coordinates": [ 119.906339069103794, 31.029000450481611 ] } },
{ "type": "Feature", "properties": { "id": 81, "name": "上海交通大学医学院附属瑞金医院", "type": "医院信息互联互通标准化成熟度测评", "location": "121.46305415422361,31.213745796191294", "province": "上海市", "city": "上海市", "district": "黄浦区", "year": "2017年", "level": "五级乙等", "level_type": "" }, "geometry": { "type": "Point", "coordinates": [ 121.463054154223613, 31.213745796191294 ] } },
{ "type": "Feature", "properties": { "id": 82, "name": "南京市卫生和计划生育委员会", "type": "区域卫生信息互联互通标准化成熟度测评", "location": "118.79169340726952,32.062330656878224", "province": "江苏省", "city": "南京市", "district": [ ], "year": "2017年", "level": "四级甲等", "level_type": "地市级" }, "geometry": { "type": "Point", "coordinates": [ 118.79169340726952, 32.062330656878224 ] } },
{ "type": "Feature", "properties": { "id": 83, "name": "河南省人民医院", "type": "医院信息互联互通标准化成熟度测评", "location": "113.68829293550296,34.77420488166406", "province": "河南省", "city": "郑州市", "district": "金水区", "year": "2017年", "level": "五级乙等", "level_type": "" }, "geometry": { "type": "Point", "coordinates": [ 113.688292935502957, 34.774204881664062 ] } },
{ "type": "Feature", "properties": { "id": 84, "name": "南京市六合区卫生和计划生育局", "type": "区域卫生信息互联互通标准化成熟度测评", "location": "118.84746377469173,32.36432325845044", "province": "江苏省", "city": "南京市", "district": "六合区", "year": "2017年", "level": "四级甲等", "level_type": "区县级" }, "geometry": { "type": "Point", "coordinates": [ 118.847463774691732, 32.36432325845044 ] } },
{ "type": "Feature", "properties": { "id": 85, "name": "中南大学湘雅医院", "type": "医院信息互联互通标准化成熟度测评", "location": "112.97837077599482,28.217224770288762", "province": "湖南省", "city": "长沙市", "district": "开福区", "year": "2017年", "level": "五级乙等", "level_type": "" }, "geometry": { "type": "Point", "coordinates": [ 112.978370775994819, 28.217224770288762 ] } },
{ "type": "Feature", "properties": { "id": 86, "name": "衢州市卫生和计划生育委员会", "type": "区域卫生信息互联互通标准化成熟度测评", "location": "118.88115056010756,28.936328746113873", "province": "浙江省", "city": "衢州市", "district": "柯城区", "year": "2017年", "level": "四级甲等", "level_type": "地市级" }, "geometry": { "type": "Point", "coordinates": [ 118.881150560107557, 28.936328746113873 ] } },
{ "type": "Feature", "properties": { "id": 87, "name": "广州市妇女儿童医疗中心", "type": "医院信息互联互通标准化成熟度测评", "location": "113.3148771790136,23.127478310627033", "province": "广东省", "city": "广州市", "district": "天河区", "year": "2017年", "level": "五级乙等", "level_type": "" }, "geometry": { "type": "Point", "coordinates": [ 113.314877179013607, 23.127478310627033 ] } },
{ "type": "Feature", "properties": { "id": 88, "name": "亳州市卫生和计划生育委员会", "type": "区域卫生信息互联互通标准化成熟度测评", "location": "115.76152505932137,33.84950937955682", "province": "安徽省", "city": "亳州市", "district": "谯城区", "year": "2017年", "level": "四级甲等", "level_type": "地市级" }, "geometry": { "type": "Point", "coordinates": [ 115.761525059321372, 33.849509379556821 ] } },
{ "type": "Feature", "properties": { "id": 89, "name": "首都医科大学附属北京世纪坛医院", "type": "医院信息互联互通标准化成熟度测评", "location": "116.31210531701437,39.89884364479131", "province": "北京市", "city": "北京市", "district": "海淀区", "year": "2017年", "level": "四级甲等", "level_type": "" }, "geometry": { "type": "Point", "coordinates": [ 116.312105317014371, 39.898843644791313 ] } },
{ "type": "Feature", "properties": { "id": 90, "name": "烟台市卫生和计划生育委员会", "type": "区域卫生信息互联互通标准化成熟度测评", "location": "121.43548723560055,37.51880381598834", "province": "山东省", "city": "烟台市", "district": "莱山区", "year": "2017年", "level": "四级甲等", "level_type": "地市级" }, "geometry": { "type": "Point", "coordinates": [ 121.435487235600547, 37.518803815988342 ] } },
{ "type": "Feature", "properties": { "id": 91, "name": "中国中医科学院西苑医院", "type": "医院信息互联互通标准化成熟度测评", "location": "116.28742174491386,39.993589113948694", "province": "北京市", "city": "北京市", "district": "海淀区", "year": "2017年", "level": "四级甲等", "level_type": "" }, "geometry": { "type": "Point", "coordinates": [ 116.287421744913857, 39.993589113948694 ] } },
{ "type": "Feature", "properties": { "id": 92, "name": "东营市卫生和计划生育委员会", "type": "区域卫生信息互联互通标准化成熟度测评", "location": "118.6580683204809,37.43949216092981", "province": "山东省", "city": "东营市", "district": "东营区", "year": "2017年", "level": "四级甲等", "level_type": "地市级" }, "geometry": { "type": "Point", "coordinates": [ 118.658068320480893, 37.439492160929809 ] } },
{ "type": "Feature", "properties": { "id": 93, "name": "包头市中心医院", "type": "医院信息互联互通标准化成熟度测评", "location": "110.01350549281335,40.583965443696215", "province": "内蒙古自治区", "city": "包头市", "district": "东河区", "year": "2017年", "level": "四级甲等", "level_type": "" }, "geometry": { "type": "Point", "coordinates": [ 110.013505492813351, 40.583965443696215 ] } },
{ "type": "Feature", "properties": { "id": 94, "name": "济南市章丘区卫生和计划生育局", "type": "区域卫生信息互联互通标准化成熟度测评", "location": "117.5202739796995,36.68105414531428", "province": "山东省", "city": "济南市", "district": "章丘区", "year": "2017年", "level": "四级甲等", "level_type": "区县级" }, "geometry": { "type": "Point", "coordinates": [ 117.520273979699496, 36.681054145314278 ] } },
{ "type": "Feature", "properties": { "id": 95, "name": "呼伦贝尔市人民医院", "type": "医院信息互联互通标准化成熟度测评", "location": "119.7649595819609,49.2086255075783", "province": "内蒙古自治区", "city": "呼伦贝尔市", "district": "海拉尔区", "year": "2017年", "level": "四级甲等", "level_type": "" }, "geometry": { "type": "Point", "coordinates": [ 119.764959581960895, 49.208625507578297 ] } },
{ "type": "Feature", "properties": { "id": 96, "name": "济南市平阴县卫生和计划生育局", "type": "区域卫生信息互联互通标准化成熟度测评", "location": "117.5286495874743,36.69445859176924", "province": "山东省", "city": "济南市", "district": "章丘区", "year": "2017年", "level": "四级甲等", "level_type": "区县级" }, "geometry": { "type": "Point", "coordinates": [ 117.528649587474305, 36.694458591769241 ] } },
{ "type": "Feature", "properties": { "id": 97, "name": "上海市第一人民医院", "type": "医院信息互联互通标准化成熟度测评", "location": "121.49193209907251,31.380217844438093", "province": "上海市", "city": "上海市", "district": "宝山区", "year": "2017年", "level": "四级甲等", "level_type": "" }, "geometry": { "type": "Point", "coordinates": [ 121.491932099072514, 31.380217844438093 ] } },
{ "type": "Feature", "properties": { "id": 98, "name": "乌海市卫生和计划生育委员会", "type": "区域卫生信息互联互通标准化成熟度测评", "location": "106.78948878742015,39.654445480549924", "province": "内蒙古自治区", "city": "乌海市", "district": [ ], "year": "2017年", "level": "四级甲等", "level_type": "地市级" }, "geometry": { "type": "Point", "coordinates": [ 106.789488787420154, 39.654445480549924 ] } },
{ "type": "Feature", "properties": { "id": 99, "name": "上海市胸科医院", "type": "医院信息互联互通标准化成熟度测评", "location": "121.42129550643861,31.199610119840713", "province": "上海市", "city": "上海市", "district": "徐汇区", "year": "2017年", "level": "四级甲等", "level_type": "" }, "geometry": { "type": "Point", "coordinates": [ 121.421295506438611, 31.199610119840713 ] } },
{ "type": "Feature", "properties": { "id": 100, "name": "马鞍山市卫生和计划生育委员会", "type": "区域卫生信息互联互通标准化成熟度测评", "location": "118.50348380178634,31.6594015538288", "province": "安徽省", "city": "马鞍山市", "district": "雨山区", "year": "2017年", "level": "四级乙等", "level_type": "地市级" }, "geometry": { "type": "Point", "coordinates": [ 118.503483801786345, 31.659401553828801 ] } },
{ "type": "Feature", "properties": { "id": 101, "name": "上海交通大学医学院附属瑞金医院北院", "type": "医院信息互联互通标准化成熟度测评", "location": "121.25449147117747,31.33745087449236", "province": "上海市", "city": "上海市", "district": "嘉定区", "year": "2017年", "level": "四级甲等", "level_type": "" }, "geometry": { "type": "Point", "coordinates": [ 121.254491471177474, 31.337450874492362 ] } },
{ "type": "Feature", "properties": { "id": 102, "name": "梧州市卫生和计划生育委员会", "type": "区域卫生信息互联互通标准化成熟度测评", "location": "111.28932021720487,23.485947481207514", "province": "广西壮族自治区", "city": "梧州市", "district": "万秀区", "year": "2017年", "level": "四级乙等", "level_type": "地市级" }, "geometry": { "type": "Point", "coordinates": [ 111.289320217204875, 23.485947481207514 ] } },
{ "type": "Feature", "properties": { "id": 103, "name": "上海中医药大学附属曙光医院", "type": "医院信息互联互通标准化成熟度测评", "location": "121.58864469275676,31.18862722560856", "province": "上海市", "city": "上海市", "district": "浦东新区", "year": "2017年", "level": "四级甲等", "level_type": "" }, "geometry": { "type": "Point", "coordinates": [ 121.588644692756759, 31.18862722560856 ] } },
{ "type": "Feature", "properties": { "id": 104, "name": "深圳市宝安区卫生和计划生育局", "type": "区域卫生信息互联互通标准化成熟度测评", "location": "113.88989961845546,22.54611824495919", "province": "广东省", "city": "深圳市", "district": "宝安区", "year": "2017年", "level": "三级", "level_type": "" }, "geometry": { "type": "Point", "coordinates": [ 113.889899618455459, 22.546118244959189 ] } },
{ "type": "Feature", "properties": { "id": 105, "name": "复旦大学附属华山医院", "type": "医院信息互联互通标准化成熟度测评", "location": "106.69655895950858,26.59268273806272", "province": "贵州省", "city": "贵阳市", "district": "云岩区", "year": "2017年", "level": "四级甲等", "level_type": "" }, "geometry": { "type": "Point", "coordinates": [ 106.696558959508579, 26.59268273806272 ] } },
{ "type": "Feature", "properties": { "id": 106, "name": "深圳市福田区卫生和计划生育局", "type": "区域卫生信息互联互通标准化成熟度测评", "location": "114.04996287613808,22.5242444881001", "province": "广东省", "city": "深圳市", "district": "福田区", "year": "2017年", "level": "三级", "level_type": "" }, "geometry": { "type": "Point", "coordinates": [ 114.049962876138082, 22.524244488100098 ] } },
{ "type": "Feature", "properties": { "id": 107, "name": "复旦大学附属眼耳鼻喉科医院", "type": "医院信息互联互通标准化成熟度测评", "location": "121.48050492697965,31.176319437714877", "province": "上海市", "city": "上海市", "district": "浦东新区", "year": "2017年", "level": "四级甲等", "level_type": "" }, "geometry": { "type": "Point", "coordinates": [ 121.480504926979648, 31.176319437714877 ] } },
{ "type": "Feature", "properties": { "id": 108, "name": "上海交通大学医学院附属上海儿童医学中心", "type": "医院信息互联互通标准化成熟度测评", "location": "121.5192172554691,31.207293850382143", "province": "上海市", "city": "上海市", "district": "浦东新区", "year": "2017年", "level": "四级甲等", "level_type": "" }, "geometry": { "type": "Point", "coordinates": [ 121.519217255469101, 31.207293850382143 ] } },
{ "type": "Feature", "properties": { "id": 109, "name": "山东省立医院", "type": "医院信息互联互通标准化成熟度测评", "location": "116.976724132086,36.65672832192172", "province": "山东省", "city": "济南市", "district": "槐荫区", "year": "2017年", "level": "四级甲等", "level_type": "" }, "geometry": { "type": "Point", "coordinates": [ 116.976724132086005, 36.656728321921719 ] } },
{ "type": "Feature", "properties": { "id": 110, "name": "上海市同仁医院", "type": "医院信息互联互通标准化成熟度测评", "location": "121.4303091058284,31.221460862670156", "province": "上海市", "city": "上海市", "district": "长宁区", "year": "2017年", "level": "四级甲等", "level_type": "" }, "geometry": { "type": "Point", "coordinates": [ 121.4303091058284, 31.221460862670156 ] } },
{ "type": "Feature", "properties": { "id": 111, "name": "滕州市中心人民医院", "type": "医院信息互联互通标准化成熟度测评", "location": "117.1571280825976,35.08870447514166", "province": "山东省", "city": "枣庄市", "district": "滕州市", "year": "2017年", "level": "四级甲等", "level_type": "" }, "geometry": { "type": "Point", "coordinates": [ 117.157128082597595, 35.088704475141661 ] } },
{ "type": "Feature", "properties": { "id": 112, "name": "南京市中西医结合医院", "type": "医院信息互联互通标准化成熟度测评", "location": "118.8527912018458,32.03647339792242", "province": "江苏省", "city": "南京市", "district": "玄武区", "year": "2017年", "level": "四级甲等", "level_type": "" }, "geometry": { "type": "Point", "coordinates": [ 118.852791201845804, 32.036473397922421 ] } },
{ "type": "Feature", "properties": { "id": 113, "name": "滨州医学院附属医院", "type": "医院信息互联互通标准化成熟度测评", "location": "118.00536913024312,37.37005706301459", "province": "山东省", "city": "滨州市", "district": "滨城区", "year": "2017年", "level": "四级甲等", "level_type": "" }, "geometry": { "type": "Point", "coordinates": [ 118.005369130243125, 37.370057063014592 ] } },
{ "type": "Feature", "properties": { "id": 114, "name": "无锡市人民医院", "type": "医院信息互联互通标准化成熟度测评", "location": "120.31809391228843,31.542624431568626", "province": "江苏省", "city": "无锡市", "district": "梁溪区", "year": "2017年", "level": "四级甲等", "level_type": "" }, "geometry": { "type": "Point", "coordinates": [ 120.318093912288433, 31.542624431568626 ] } },
{ "type": "Feature", "properties": { "id": 115, "name": "河北省人民医院", "type": "医院信息互联互通标准化成熟度测评", "location": "114.45903485513894,38.057285560510266", "province": "河北省", "city": "石家庄市", "district": "新华区", "year": "2017年", "level": "四级甲等", "level_type": "" }, "geometry": { "type": "Point", "coordinates": [ 114.459034855138938, 38.057285560510266 ] } },
{ "type": "Feature", "properties": { "id": 116, "name": "江阴市人民医院", "type": "医院信息互联互通标准化成熟度测评", "location": "120.26984097468315,31.91110647709689", "province": "江苏省", "city": "无锡市", "district": "江阴市", "year": "2017年", "level": "四级甲等", "level_type": "" }, "geometry": { "type": "Point", "coordinates": [ 120.269840974683149, 31.91110647709689 ] } },
{ "type": "Feature", "properties": { "id": 117, "name": "武汉市第一医院", "type": "医院信息互联互通标准化成熟度测评", "location": "114.2667001613396,30.574210487570966", "province": "湖北省", "city": "武汉市", "district": "硚口区", "year": "2017年", "level": "四级甲等", "level_type": "" }, "geometry": { "type": "Point", "coordinates": [ 114.2667001613396, 30.574210487570966 ] } },
{ "type": "Feature", "properties": { "id": 118, "name": "江苏大学附属医院", "type": "医院信息互联互通标准化成熟度测评", "location": "118.69948465026798,32.18089572049604", "province": "江苏省", "city": "南京市", "district": "浦口区", "year": "2017年", "level": "四级甲等", "level_type": "" }, "geometry": { "type": "Point", "coordinates": [ 118.699484650267976, 32.180895720496039 ] } },
{ "type": "Feature", "properties": { "id": 119, "name": "武汉市中心医院", "type": "医院信息互联互通标准化成熟度测评", "location": "114.28953944531624,30.582811186930016", "province": "湖北省", "city": "武汉市", "district": "江岸区", "year": "2017年", "level": "四级甲等", "level_type": "" }, "geometry": { "type": "Point", "coordinates": [ 114.289539445316237, 30.582811186930016 ] } },
{ "type": "Feature", "properties": { "id": 120, "name": "杭州师范大学附属医院", "type": "医院信息互联互通标准化成熟度测评", "location": "120.13646215597471,30.32457817810776", "province": "浙江省", "city": "杭州市", "district": "拱墅区", "year": "2017年", "level": "四级甲等", "level_type": "" }, "geometry": { "type": "Point", "coordinates": [ 120.136462155974712, 30.32457817810776 ] } },
{ "type": "Feature", "properties": { "id": 121, "name": "黄石市中心医院", "type": "医院信息互联互通标准化成熟度测评", "location": "115.07949359276651,30.214564456869574", "province": "湖北省", "city": "黄石市", "district": "黄石港区", "year": "2017年", "level": "四级甲等", "level_type": "" }, "geometry": { "type": "Point", "coordinates": [ 115.079493592766511, 30.214564456869574 ] } },
{ "type": "Feature", "properties": { "id": 122, "name": "宁波市第二医院", "type": "医院信息互联互通标准化成熟度测评", "location": "121.54010101085929,29.88534499090725", "province": "浙江省", "city": "宁波市", "district": "海曙区", "year": "2017年", "level": "四级甲等", "level_type": "" }, "geometry": { "type": "Point", "coordinates": [ 121.540101010859289, 29.885344990907249 ] } },
{ "type": "Feature", "properties": { "id": 123, "name": "广州医科大学附属第二医院", "type": "医院信息互联互通标准化成熟度测评", "location": "113.27399495486192,23.092602650844693", "province": "广东省", "city": "广州市", "district": "海珠区", "year": "2017年", "level": "四级甲等", "level_type": "" }, "geometry": { "type": "Point", "coordinates": [ 113.273994954861919, 23.092602650844693 ] } },
{ "type": "Feature", "properties": { "id": 124, "name": "中国科技大学附属第一医院", "type": "医院信息互联互通标准化成熟度测评", "location": "117.26148775791499,31.835646211663583", "province": "安徽省", "city": "合肥市", "district": "包河区", "year": "2017年", "level": "四级甲等", "level_type": "" }, "geometry": { "type": "Point", "coordinates": [ 117.261487757914992, 31.835646211663583 ] } },
{ "type": "Feature", "properties": { "id": 125, "name": "暨南大学附属第一医院", "type": "医院信息互联互通标准化成熟度测评", "location": "113.34508076709274,23.12873153805193", "province": "广东省", "city": "广州市", "district": "天河区", "year": "2017年", "level": "四级甲等", "level_type": "" }, "geometry": { "type": "Point", "coordinates": [ 113.345080767092739, 23.12873153805193 ] } },
{ "type": "Feature", "properties": { "id": 126, "name": "安徽医科大学第一附属医院", "type": "医院信息互联互通标准化成熟度测评", "location": "117.2623474648958,31.84951529646973", "province": "安徽省", "city": "合肥市", "district": "蜀山区", "year": "2017年", "level": "四级甲等", "level_type": "" }, "geometry": { "type": "Point", "coordinates": [ 117.262347464895797, 31.849515296469729 ] } },
{ "type": "Feature", "properties": { "id": 127, "name": "广东省人民医院", "type": "医院信息互联互通标准化成熟度测评", "location": "113.28200487742251,23.12815751442385", "province": "广东省", "city": "广州市", "district": "越秀区", "year": "2017年", "level": "四级甲等", "level_type": "" }, "geometry": { "type": "Point", "coordinates": [ 113.282004877422509, 23.128157514423851 ] } },
{ "type": "Feature", "properties": { "id": 128, "name": "芜湖市第二人民医院", "type": "医院信息互联互通标准化成熟度测评", "location": "118.37250054372993,31.32971718444785", "province": "安徽省", "city": "芜湖市", "district": "镜湖区", "year": "2017年", "level": "四级甲等", "level_type": "" }, "geometry": { "type": "Point", "coordinates": [ 118.372500543729927, 31.329717184447851 ] } },
{ "type": "Feature", "properties": { "id": 129, "name": "广州医科大学附属第三医院", "type": "医院信息互联互通标准化成熟度测评", "location": "113.22970684400764,23.120121295136666", "province": "广东省", "city": "广州市", "district": "荔湾区", "year": "2017年", "level": "四级甲等", "level_type": "" }, "geometry": { "type": "Point", "coordinates": [ 113.229706844007637, 23.120121295136666 ] } },
{ "type": "Feature", "properties": { "id": 130, "name": "福建省立医院", "type": "医院信息互联互通标准化成熟度测评", "location": "119.30275066895452,26.090197128740822", "province": "福建省", "city": "福州市", "district": "鼓楼区", "year": "2017年", "level": "四级甲等", "level_type": "" }, "geometry": { "type": "Point", "coordinates": [ 119.302750668954516, 26.090197128740822 ] } },
{ "type": "Feature", "properties": { "id": 131, "name": "深圳市第二人民医院", "type": "医院信息互联互通标准化成熟度测评", "location": "114.08094621292342,22.56013031175965", "province": "广东省", "city": "深圳市", "district": "福田区", "year": "2017年", "level": "四级甲等", "level_type": "" }, "geometry": { "type": "Point", "coordinates": [ 114.080946212923422, 22.56013031175965 ] } },
{ "type": "Feature", "properties": { "id": 132, "name": "厦门大学附属第一医院", "type": "医院信息互联互通标准化成熟度测评", "location": "118.08243503316987,24.453068527679594", "province": "福建省", "city": "厦门市", "district": "思明区", "year": "2017年", "level": "四级甲等", "level_type": "" }, "geometry": { "type": "Point", "coordinates": [ 118.082435033169872, 24.453068527679594 ] } },
{ "type": "Feature", "properties": { "id": 133, "name": "深圳市宝安区妇幼保健院", "type": "医院信息互联互通标准化成熟度测评", "location": "113.89441101788611,22.574398743877584", "province": "广东省", "city": "深圳市", "district": "宝安区", "year": "2017年", "level": "四级甲等", "level_type": "" }, "geometry": { "type": "Point", "coordinates": [ 113.894411017886114, 22.574398743877584 ] } },
{ "type": "Feature", "properties": { "id": 134, "name": "厦门大学附属中山医院", "type": "医院信息互联互通标准化成熟度测评", "location": "118.09275759852466,24.47414171313637", "province": "福建省", "city": "厦门市", "district": "思明区", "year": "2017年", "level": "四级甲等", "level_type": "" }, "geometry": { "type": "Point", "coordinates": [ 118.092757598524656, 24.474141713136369 ] } },
{ "type": "Feature", "properties": { "id": 135, "name": "南昌大学第一附属医院", "type": "医院信息互联互通标准化成熟度测评", "location": "115.90541319818612,28.68989011999287", "province": "江西省", "city": "南昌市", "district": "东湖区", "year": "2017年", "level": "四级甲等", "level_type": "" }, "geometry": { "type": "Point", "coordinates": [ 115.905413198186125, 28.689890119992871 ] } },
{ "type": "Feature", "properties": { "id": 136, "name": "重庆医科大学附属儿童医院", "type": "医院信息互联互通标准化成熟度测评", "location": "106.55068448015729,29.559235468434775", "province": "重庆市", "city": "重庆市", "district": "渝中区", "year": "2017年", "level": "四级甲等", "level_type": "" }, "geometry": { "type": "Point", "coordinates": [ 106.550684480157287, 29.559235468434775 ] } },
{ "type": "Feature", "properties": { "id": 137, "name": "重庆市南川区人民医院", "type": "医院信息互联互通标准化成熟度测评", "location": "107.08805132573913,29.15564476875757", "province": "重庆市", "city": "重庆市", "district": "南川区", "year": "2017年", "level": "四级甲等", "level_type": "" }, "geometry": { "type": "Point", "coordinates": [ 107.08805132573913, 29.155644768757568 ] } },
{ "type": "Feature", "properties": { "id": 138, "name": "芜湖市第一人民医院", "type": "医院信息互联互通标准化成熟度测评", "location": "118.45034046239418,31.3565235665597", "province": "安徽省", "city": "芜湖市", "district": "鸠江区", "year": "2017年", "level": "四级乙等", "level_type": "" }, "geometry": { "type": "Point", "coordinates": [ 118.45034046239418, 31.356523566559702 ] } },
{ "type": "Feature", "properties": { "id": 139, "name": "石棉县人民医院", "type": "医院信息互联互通标准化成熟度测评", "location": "102.35985739972595,29.23699140751694", "province": "四川省", "city": "雅安市", "district": "石棉县", "year": "2017年", "level": "四级乙等", "level_type": "" }, "geometry": { "type": "Point", "coordinates": [ 102.359857399725954, 29.236991407516939 ] } },
{ "type": "Feature", "properties": { "id": 140, "name": "宜宾市第二人民医院", "type": "医院信息互联互通标准化成熟度测评", "location": "104.62901815511461,28.756544460298997", "province": "四川省", "city": "宜宾市", "district": "翠屏区", "year": "2017年", "level": "四级乙等", "level_type": "" }, "geometry": { "type": "Point", "coordinates": [ 104.629018155114608, 28.756544460298997 ] } },
{ "type": "Feature", "properties": { "id": 141, "name": "重庆市沙坪坝区人民医院", "type": "医院信息互联互通标准化成熟度测评", "location": "106.46205192049267,29.55857826679992", "province": "重庆市", "city": "重庆市", "district": "沙坪坝区", "year": "2017年", "level": "三级", "level_type": "" }, "geometry": { "type": "Point", "coordinates": [ 106.462051920492669, 29.55857826679992 ] } },
{ "type": "Feature", "properties": { "id": 142, "name": "南通市卫生健康委员会", "type": "区域卫生信息互联互通标准化成熟度测评", "location": "120.89007533699485,31.982340835456704", "province": "江苏省", "city": "南通市", "district": [ ], "year": "2018年", "level": "五级乙等", "level_type": "地市级" }, "geometry": { "type": "Point", "coordinates": [ 120.890075336994855, 31.982340835456704 ] } },
{ "type": "Feature", "properties": { "id": 143, "name": "无锡市卫生健康委员会", "type": "区域卫生信息互联互通标准化成熟度测评", "location": "120.30730137699582,31.49305814316863", "province": "江苏省", "city": "无锡市", "district": [ ], "year": "2018年", "level": "五级乙等", "level_type": "地市级" }, "geometry": { "type": "Point", "coordinates": [ 120.307301376995824, 31.493058143168629 ] } },
{ "type": "Feature", "properties": { "id": 144, "name": "南京市江宁区卫生健康委员会", "type": "区域卫生信息互联互通标准化成熟度测评", "location": "118.8345977695113,31.95582986775246", "province": "江苏省", "city": "南京市", "district": "江宁区", "year": "2018年", "level": "五级乙等", "level_type": "区县级" }, "geometry": { "type": "Point", "coordinates": [ 118.834597769511305, 31.95582986775246 ] } },
{ "type": "Feature", "properties": { "id": 145, "name": "宁波市鄞州区卫生健康局", "type": "区域卫生信息互联互通标准化成熟度测评", "location": "121.54244050747722,29.81909107320341", "province": "浙江省", "city": "宁波市", "district": "鄞州区", "year": "2018年", "level": "五级乙等", "level_type": "区县级" }, "geometry": { "type": "Point", "coordinates": [ 121.542440507477224, 29.81909107320341 ] } },
{ "type": "Feature", "properties": { "id": 146, "name": "北京市昌平区卫生健康委员会", "type": "区域卫生信息互联互通标准化成熟度测评", "location": "116.22512130388156,40.219414883729904", "province": "北京市", "city": "北京市", "district": "昌平区", "year": "2018年", "level": "四级甲等", "level_type": "地市级" }, "geometry": { "type": "Point", "coordinates": [ 116.225121303881565, 40.219414883729904 ] } },
{ "type": "Feature", "properties": { "id": 147, "name": "天津市北辰区卫生健康委员会", "type": "区域卫生信息互联互通标准化成熟度测评", "location": "117.13292161723143,39.21662363734761", "province": "天津市", "city": "天津市", "district": "北辰区", "year": "2018年", "level": "四级甲等", "level_type": "地市级" }, "geometry": { "type": "Point", "coordinates": [ 117.132921617231432, 39.21662363734761 ] } },
{ "type": "Feature", "properties": { "id": 148, "name": "太原市卫生健康委员会", "type": "区域卫生信息互联互通标准化成熟度测评", "location": "112.54257962210171,37.870064805919334", "province": "山西省", "city": "太原市", "district": [ ], "year": "2018年", "level": "四级甲等", "level_type": "地市级" }, "geometry": { "type": "Point", "coordinates": [ 112.542579622101712, 37.870064805919334 ] } },
{ "type": "Feature", "properties": { "id": 149, "name": "吕梁市卫生健康委员会", "type": "区域卫生信息互联互通标准化成熟度测评", "location": "111.1379565296415,37.51753684433588", "province": "山西省", "city": "吕梁市", "district": [ ], "year": "2018年", "level": "四级甲等", "level_type": "地市级" }, "geometry": { "type": "Point", "coordinates": [ 111.1379565296415, 37.517536844335879 ] } },
{ "type": "Feature", "properties": { "id": 150, "name": "南京市雨花台区卫生健康委员会", "type": "区域卫生信息互联互通标准化成熟度测评", "location": "118.77386994577897,31.993384090649972", "province": "江苏省", "city": "南京市", "district": "雨花台区", "year": "2018年", "level": "四级甲等", "level_type": "区县级" }, "geometry": { "type": "Point", "coordinates": [ 118.773869945778969, 31.993384090649972 ] } },
{ "type": "Feature", "properties": { "id": 151, "name": "南京市溧水区卫生健康委员会", "type": "区域卫生信息互联互通标准化成熟度测评", "location": "119.02296621486504,31.65301298644826", "province": "江苏省", "city": "南京市", "district": "溧水区", "year": "2018年", "level": "四级甲等", "level_type": "区县级" }, "geometry": { "type": "Point", "coordinates": [ 119.022966214865036, 31.65301298644826 ] } },
{ "type": "Feature", "properties": { "id": 152, "name": "苏州市吴中区卫生健康委员会", "type": "区域卫生信息互联互通标准化成熟度测评", "location": "120.62771096784401,31.266390622745977", "province": "江苏省", "city": "苏州市", "district": "吴中区", "year": "2018年", "level": "四级甲等", "level_type": "区县级" }, "geometry": { "type": "Point", "coordinates": [ 120.62771096784401, 31.266390622745977 ] } },
{ "type": "Feature", "properties": { "id": 153, "name": "太仓市卫生健康委员会", "type": "区域卫生信息互联互通标准化成熟度测评", "location": "121.12593272351359,31.45951834334324", "province": "江苏省", "city": "苏州市", "district": "太仓市", "year": "2018年", "level": "四级甲等", "level_type": "区县级" }, "geometry": { "type": "Point", "coordinates": [ 121.125932723513586, 31.459518343343241 ] } },
{ "type": "Feature", "properties": { "id": 154, "name": "盐城市盐都区卫生健康委员会", "type": "区域卫生信息互联互通标准化成熟度测评", "location": "120.14892667513236,33.33952079637103", "province": "江苏省", "city": "盐城市", "district": "盐都区", "year": "2018年", "level": "四级甲等", "level_type": "区县级" }, "geometry": { "type": "Point", "coordinates": [ 120.148926675132358, 33.339520796371033 ] } },
{ "type": "Feature", "properties": { "id": 155, "name": "湖州市卫生健康委员会", "type": "区域卫生信息互联互通标准化成熟度测评", "location": "120.08195187823723,30.89639205375523", "province": "浙江省", "city": "湖州市", "district": [ ], "year": "2018年", "level": "四级甲等", "level_type": "地市级" }, "geometry": { "type": "Point", "coordinates": [ 120.081951878237234, 30.896392053755228 ] } },
{ "type": "Feature", "properties": { "id": 156, "name": "德清县卫生健康局", "type": "区域卫生信息互联互通标准化成熟度测评", "location": "119.9727521876503,30.544976163403867", "province": "浙江省", "city": "湖州市", "district": "德清县", "year": "2018年", "level": "四级甲等", "level_type": "区县级" }, "geometry": { "type": "Point", "coordinates": [ 119.9727521876503, 30.544976163403867 ] } },
{ "type": "Feature", "properties": { "id": 157, "name": "安吉县卫生健康局", "type": "区域卫生信息互联互通标准化成熟度测评", "location": "119.67546942153551,30.64111953439564", "province": "浙江省", "city": "湖州市", "district": "安吉县", "year": "2018年", "level": "四级甲等", "level_type": "区县级" }, "geometry": { "type": "Point", "coordinates": [ 119.67546942153551, 30.641119534395639 ] } },
{ "type": "Feature", "properties": { "id": 158, "name": "宁波市江北区卫生健康局", "type": "区域卫生信息互联互通标准化成熟度测评", "location": "121.55108018365769,29.88934916779083", "province": "浙江省", "city": "宁波市", "district": "江北区", "year": "2018年", "level": "四级甲等", "level_type": "区县级" }, "geometry": { "type": "Point", "coordinates": [ 121.551080183657689, 29.889349167790829 ] } },
{ "type": "Feature", "properties": { "id": 159, "name": "宁波市镇海区卫生健康局", "type": "区域卫生信息互联互通标准化成熟度测评", "location": "121.71228253781058,29.95146144606101", "province": "浙江省", "city": "宁波市", "district": "镇海区", "year": "2018年", "level": "四级甲等", "level_type": "区县级" }, "geometry": { "type": "Point", "coordinates": [ 121.71228253781058, 29.95146144606101 ] } },
{ "type": "Feature", "properties": { "id": 160, "name": "宁波市北仑区卫生健康局", "type": "区域卫生信息互联互通标准化成熟度测评", "location": "121.84052733358729,29.901611956716017", "province": "浙江省", "city": "宁波市", "district": "北仑区", "year": "2018年", "level": "四级甲等", "level_type": "区县级" }, "geometry": { "type": "Point", "coordinates": [ 121.840527333587289, 29.901611956716017 ] } },
{ "type": "Feature", "properties": { "id": 161, "name": "余姚市卫生健康局", "type": "区域卫生信息互联互通标准化成熟度测评", "location": "121.150135811388,30.04018096929531", "province": "浙江省", "city": "宁波市", "district": "余姚市", "year": "2018年", "level": "四级甲等", "level_type": "区县级" }, "geometry": { "type": "Point", "coordinates": [ 121.150135811387997, 30.04018096929531 ] } },
{ "type": "Feature", "properties": { "id": 162, "name": "象山县卫生健康局", "type": "区域卫生信息互联互通标准化成熟度测评", "location": "121.86533447929034,29.47940923596719", "province": "浙江省", "city": "宁波市", "district": "象山县", "year": "2018年", "level": "四级甲等", "level_type": "区县级" }, "geometry": { "type": "Point", "coordinates": [ 121.86533447929034, 29.479409235967189 ] } },
{ "type": "Feature", "properties": { "id": 163, "name": "嵊州市卫生健康局", "type": "区域卫生信息互联互通标准化成熟度测评", "location": "120.8269124827537,29.564028853351612", "province": "浙江省", "city": "绍兴市", "district": "嵊州市", "year": "2018年", "level": "四级甲等", "level_type": "区县级" }, "geometry": { "type": "Point", "coordinates": [ 120.826912482753698, 29.564028853351612 ] } },
{ "type": "Feature", "properties": { "id": 164, "name": "桐乡市卫生健康局", "type": "区域卫生信息互联互通标准化成熟度测评", "location": "120.56094612003523,30.632691323801538", "province": "浙江省", "city": "嘉兴市", "district": "桐乡市", "year": "2018年", "level": "四级甲等", "level_type": "区县级" }, "geometry": { "type": "Point", "coordinates": [ 120.560946120035226, 30.632691323801538 ] } },
{ "type": "Feature", "properties": { "id": 165, "name": "绍兴市卫生健康委员会", "type": "区域卫生信息互联互通标准化成熟度测评", "location": "120.57615035109366,30.032387568415892", "province": "浙江省", "city": "绍兴市", "district": [ ], "year": "2018年", "level": "四级甲等", "level_type": "地市级" }, "geometry": { "type": "Point", "coordinates": [ 120.576150351093659, 30.032387568415892 ] } },
{ "type": "Feature", "properties": { "id": 166, "name": "嘉兴市卫生健康委员会", "type": "区域卫生信息互联互通标准化成熟度测评", "location": "120.7511665456823,30.7484289983341", "province": "浙江省", "city": "嘉兴市", "district": [ ], "year": "2018年", "level": "四级甲等", "level_type": "地市级" }, "geometry": { "type": "Point", "coordinates": [ 120.751166545682295, 30.748428998334099 ] } },
{ "type": "Feature", "properties": { "id": 167, "name": "衢州市衢江区卫生健康局", "type": "区域卫生信息互联互通标准化成熟度测评", "location": "118.9546121271794,28.982820226567803", "province": "浙江省", "city": "衢州市", "district": "衢江区", "year": "2018年", "level": "四级甲等", "level_type": "区县级" }, "geometry": { "type": "Point", "coordinates": [ 118.954612127179402, 28.982820226567803 ] } },
{ "type": "Feature", "properties": { "id": 168, "name": "湖州市吴兴区卫生健康局", "type": "区域卫生信息互联互通标准化成熟度测评", "location": "120.18118552519813,30.859329508329782", "province": "浙江省", "city": "湖州市", "district": "吴兴区", "year": "2018年", "level": "四级乙等", "level_type": "区县级" }, "geometry": { "type": "Point", "coordinates": [ 120.181185525198131, 30.859329508329782 ] } },
{ "type": "Feature", "properties": { "id": 169, "name": "湖州市南浔区卫生健康局", "type": "区域卫生信息互联互通标准化成熟度测评", "location": "120.41388794016913,30.85175840177396", "province": "浙江省", "city": "湖州市", "district": "南浔区", "year": "2018年", "level": "四级乙等", "level_type": "区县级" }, "geometry": { "type": "Point", "coordinates": [ 120.413887940169133, 30.85175840177396 ] } },
{ "type": "Feature", "properties": { "id": 170, "name": "宁波市海曙区卫生健康局", "type": "区域卫生信息互联互通标准化成熟度测评", "location": "121.54691145042501,29.86235778202812", "province": "浙江省", "city": "宁波市", "district": "海曙区", "year": "2018年", "level": "四级乙等", "level_type": "区县级" }, "geometry": { "type": "Point", "coordinates": [ 121.546911450425014, 29.86235778202812 ] } },
{ "type": "Feature", "properties": { "id": 171, "name": "宁波市奉化区卫生健康局", "type": "区域卫生信息互联互通标准化成熟度测评", "location": "121.51334147543612,29.57213730439313", "province": "浙江省", "city": "宁波市", "district": "奉化区", "year": "2018年", "level": "四级乙等", "level_type": "区县级" }, "geometry": { "type": "Point", "coordinates": [ 121.513341475436121, 29.572137304393131 ] } },
{ "type": "Feature", "properties": { "id": 172, "name": "慈溪市卫生健康局", "type": "区域卫生信息互联互通标准化成熟度测评", "location": "121.26223340012164,30.172105334625773", "province": "浙江省", "city": "宁波市", "district": "慈溪市", "year": "2018年", "level": "四级乙等", "level_type": "区县级" }, "geometry": { "type": "Point", "coordinates": [ 121.262233400121644, 30.172105334625773 ] } },
{ "type": "Feature", "properties": { "id": 173, "name": "宁海县卫生健康局", "type": "区域卫生信息互联互通标准化成熟度测评", "location": "121.42500858025603,29.290426840053712", "province": "浙江省", "city": "宁波市", "district": "宁海县", "year": "2018年", "level": "四级乙等", "level_type": "区县级" }, "geometry": { "type": "Point", "coordinates": [ 121.425008580256033, 29.290426840053712 ] } },
{ "type": "Feature", "properties": { "id": 174, "name": "丽水市卫生健康委员会", "type": "区域卫生信息互联互通标准化成熟度测评", "location": "119.91839120985716,28.471035928947696", "province": "浙江省", "city": "丽水市", "district": [ ], "year": "2018年", "level": "四级乙等", "level_type": "地市级" }, "geometry": { "type": "Point", "coordinates": [ 119.918391209857162, 28.471035928947696 ] } },
{ "type": "Feature", "properties": { "id": 175, "name": "天长市卫生健康委员会", "type": "区域卫生信息互联互通标准化成熟度测评", "location": "118.99948983555161,32.66955696732869", "province": "安徽省", "city": "滁州市", "district": "天长市", "year": "2018年", "level": "四级甲等", "level_type": "区县级" }, "geometry": { "type": "Point", "coordinates": [ 118.999489835551614, 32.669556967328688 ] } },
{ "type": "Feature", "properties": { "id": 176, "name": "淮南市卫生健康委员会", "type": "区域卫生信息互联互通标准化成熟度测评", "location": "116.99450476778655,32.62752807500683", "province": "安徽省", "city": "淮南市", "district": [ ], "year": "2018年", "level": "四级甲等", "level_type": "地市级" }, "geometry": { "type": "Point", "coordinates": [ 116.994504767786552, 32.627528075006829 ] } },
{ "type": "Feature", "properties": { "id": 177, "name": "淮北市卫生健康委员会", "type": "区域卫生信息互联互通标准化成熟度测评", "location": "116.79286810789552,33.95727129705307", "province": "安徽省", "city": "淮北市", "district": [ ], "year": "2018年", "level": "四级乙等", "level_type": "地市级" }, "geometry": { "type": "Point", "coordinates": [ 116.792868107895515, 33.957271297053069 ] } },
{ "type": "Feature", "properties": { "id": 178, "name": "济宁市卫生健康委员会", "type": "区域卫生信息互联互通标准化成熟度测评", "location": "116.58180697171,35.415369009402546", "province": "山东省", "city": "济宁市", "district": [ ], "year": "2018年", "level": "四级甲等", "level_type": "地市级" }, "geometry": { "type": "Point", "coordinates": [ 116.581806971709995, 35.415369009402546 ] } },
{ "type": "Feature", "properties": { "id": 179, "name": "荣成市卫生健康局", "type": "区域卫生信息互联互通标准化成熟度测评", "location": "122.48183684003497,37.16440525780869", "province": "山东省", "city": "威海市", "district": "荣成市", "year": "2018年", "level": "四级甲等", "level_type": "区县级" }, "geometry": { "type": "Point", "coordinates": [ 122.481836840034973, 37.164405257808689 ] } },
{ "type": "Feature", "properties": { "id": 180, "name": "寿光市卫生健康局", "type": "区域卫生信息互联互通标准化成熟度测评", "location": "118.78497072391102,36.85508506527376", "province": "山东省", "city": "潍坊市", "district": "寿光市", "year": "2018年", "level": "四级甲等", "level_type": "区县级" }, "geometry": { "type": "Point", "coordinates": [ 118.784970723911016, 36.855085065273762 ] } },
{ "type": "Feature", "properties": { "id": 181, "name": "宜昌市卫生健康委员会", "type": "区域卫生信息互联互通标准化成熟度测评", "location": "111.28081149408958,30.694405983285673", "province": "湖北省", "city": "宜昌市", "district": [ ], "year": "2018年", "level": "四级甲等", "level_type": "地市级" }, "geometry": { "type": "Point", "coordinates": [ 111.280811494089576, 30.694405983285673 ] } },
{ "type": "Feature", "properties": { "id": 182, "name": "武汉经济技术开发区（汉南区）卫生和计划生育局", "type": "区域卫生信息互联互通标准化成熟度测评", "location": "114.15400040026108,30.490723021003856", "province": "湖北省", "city": "武汉市", "district": "蔡甸区", "year": "2018年", "level": "四级乙等", "level_type": "区县级" }, "geometry": { "type": "Point", "coordinates": [ 114.154000400261083, 30.490723021003856 ] } },
{ "type": "Feature", "properties": { "id": 183, "name": "武汉市黄陂区卫生健康局", "type": "区域卫生信息互联互通标准化成熟度测评", "location": "114.37017431463545,30.88470277716299", "province": "湖北省", "city": "武汉市", "district": "黄陂区", "year": "2018年", "level": "四级乙等", "level_type": "区县级" }, "geometry": { "type": "Point", "coordinates": [ 114.370174314635449, 30.884702777162989 ] } },
{ "type": "Feature", "properties": { "id": 184, "name": "深圳市龙岗区卫生健康局", "type": "区域卫生信息互联互通标准化成熟度测评", "location": "114.24206281627511,22.723801519498213", "province": "广东省", "city": "深圳市", "district": "龙岗区", "year": "2018年", "level": "四级甲等", "level_type": "区县级" }, "geometry": { "type": "Point", "coordinates": [ 114.242062816275109, 22.723801519498213 ] } },
{ "type": "Feature", "properties": { "id": 185, "name": "重庆市南川区卫生健康委员会", "type": "区域卫生信息互联互通标准化成熟度测评", "location": "107.09482759246262,29.160645220569876", "province": "重庆市", "city": "重庆市", "district": "南川区", "year": "2018年", "level": "四级乙等", "level_type": "地市级" }, "geometry": { "type": "Point", "coordinates": [ 107.094827592462622, 29.160645220569876 ] } },
{ "type": "Feature", "properties": { "id": 186, "name": "绵阳市卫生健康委员会", "type": "区域卫生信息互联互通标准化成熟度测评", "location": "104.67649732422034,31.4697261508005", "province": "四川省", "city": "绵阳市", "district": [ ], "year": "2018年", "level": "四级甲等", "level_type": "地市级" }, "geometry": { "type": "Point", "coordinates": [ 104.676497324220335, 31.469726150800501 ] } },
{ "type": "Feature", "properties": { "id": 187, "name": "广元市卫生健康委员会", "type": "区域卫生信息互联互通标准化成熟度测评", "location": "105.83965135520522,32.43783451806642", "province": "四川省", "city": "广元市", "district": [ ], "year": "2018年", "level": "四级甲等", "level_type": "地市级" }, "geometry": { "type": "Point", "coordinates": [ 105.83965135520522, 32.437834518066417 ] } },
{ "type": "Feature", "properties": { "id": 188, "name": "宜宾市卫生健康委员会", "type": "区域卫生信息互联互通标准化成熟度测评", "location": "104.64083195528211,28.755196235924963", "province": "四川省", "city": "宜宾市", "district": [ ], "year": "2018年", "level": "四级甲等", "level_type": "地市级" }, "geometry": { "type": "Point", "coordinates": [ 104.64083195528211, 28.755196235924963 ] } },
{ "type": "Feature", "properties": { "id": 189, "name": "攀枝花市卫生健康委员会", "type": "区域卫生信息互联互通标准化成熟度测评", "location": "101.7170625341634,26.585914894189024", "province": "四川省", "city": "攀枝花市", "district": [ ], "year": "2018年", "level": "三级", "level_type": "地市级" }, "geometry": { "type": "Point", "coordinates": [ 101.717062534163404, 26.585914894189024 ] } },
{ "type": "Feature", "properties": { "id": 190, "name": "中国医科大学附属盛京医院", "type": "医院信息互联互通标准化成熟度测评", "location": "123.39749500149595,41.94298068376728", "province": "辽宁省", "city": "沈阳市", "district": "沈北新区", "year": "2018年", "level": "五级乙等", "level_type": "" }, "geometry": { "type": "Point", "coordinates": [ 123.397495001495955, 41.942980683767281 ] } },
{ "type": "Feature", "properties": { "id": 191, "name": "上海市儿童医院", "type": "医院信息互联互通标准化成熟度测评", "location": "121.38262042219951,31.228428810431076", "province": "上海市", "city": "上海市", "district": "普陀区", "year": "2018年", "level": "五级乙等", "level_type": "" }, "geometry": { "type": "Point", "coordinates": [ 121.382620422199508, 31.228428810431076 ] } },
{ "type": "Feature", "properties": { "id": 192, "name": "上海中医药大学附属龙华医院", "type": "医院信息互联互通标准化成熟度测评", "location": "121.44591055088591,31.189896548554398", "province": "上海市", "city": "上海市", "district": "徐汇区", "year": "2018年", "level": "五级乙等", "level_type": "" }, "geometry": { "type": "Point", "coordinates": [ 121.445910550885912, 31.189896548554398 ] } },
{ "type": "Feature", "properties": { "id": 193, "name": "江苏省人民医院", "type": "医院信息互联互通标准化成熟度测评", "location": "118.76200065593443,32.05118444500364", "province": "江苏省", "city": "南京市", "district": "鼓楼区", "year": "2018年", "level": "五级乙等", "level_type": "" }, "geometry": { "type": "Point", "coordinates": [ 118.762000655934429, 32.051184445003642 ] } },
{ "type": "Feature", "properties": { "id": 194, "name": "南京鼓楼医院", "type": "医院信息互联互通标准化成熟度测评", "location": "118.77775479666431,32.05730888140386", "province": "江苏省", "city": "南京市", "district": "鼓楼区", "year": "2018年", "level": "五级乙等", "level_type": "" }, "geometry": { "type": "Point", "coordinates": [ 118.777754796664311, 32.057308881403863 ] } },
{ "type": "Feature", "properties": { "id": 195, "name": "南京市儿童医院", "type": "医院信息互联互通标准化成熟度测评", "location": "118.77416080512371,32.052803956133765", "province": "江苏省", "city": "南京市", "district": "鼓楼区", "year": "2018年", "level": "五级乙等", "level_type": "" }, "geometry": { "type": "Point", "coordinates": [ 118.774160805123714, 32.052803956133765 ] } },
{ "type": "Feature", "properties": { "id": 196, "name": "中国科学技术大学附属第一医院", "type": "医院信息互联互通标准化成熟度测评", "location": "116.75152979314879,39.58753090364271", "province": "河北省", "city": "廊坊市", "district": "广阳区", "year": "2018年", "level": "五级乙等", "level_type": "" }, "geometry": { "type": "Point", "coordinates": [ 116.751529793148791, 39.587530903642708 ] } },
{ "type": "Feature", "properties": { "id": 197, "name": "厦门大学附属中山医院", "type": "医院信息互联互通标准化成熟度测评", "location": "118.09275759852466,24.47414171313637", "province": "福建省", "city": "厦门市", "district": "思明区", "year": "2018年", "level": "五级乙等", "level_type": "" }, "geometry": { "type": "Point", "coordinates": [ 118.092757598524656, 24.474141713136369 ] } },
{ "type": "Feature", "properties": { "id": 198, "name": "厦门大学附属第一医院", "type": "医院信息互联互通标准化成熟度测评", "location": "118.08243503316987,24.453068527679594", "province": "福建省", "city": "厦门市", "district": "思明区", "year": "2018年", "level": "五级乙等", "level_type": "" }, "geometry": { "type": "Point", "coordinates": [ 118.082435033169872, 24.453068527679594 ] } },
{ "type": "Feature", "properties": { "id": 199, "name": "南昌大学第一附属医院", "type": "医院信息互联互通标准化成熟度测评", "location": "115.90541319818612,28.68989011999287", "province": "江西省", "city": "南昌市", "district": "东湖区", "year": "2018年", "level": "五级乙等", "level_type": "" }, "geometry": { "type": "Point", "coordinates": [ 115.905413198186125, 28.689890119992871 ] } },
{ "type": "Feature", "properties": { "id": 200, "name": "广州医科大学附属第二医院", "type": "医院信息互联互通标准化成熟度测评", "location": "113.27399495486192,23.092602650844693", "province": "广东省", "city": "广州市", "district": "海珠区", "year": "2018年", "level": "五级乙等", "level_type": "" }, "geometry": { "type": "Point", "coordinates": [ 113.273994954861919, 23.092602650844693 ] } },
{ "type": "Feature", "properties": { "id": 201, "name": "北京大学口腔医院", "type": "医院信息互联互通标准化成熟度测评", "location": "116.37180697023136,39.92270881533899", "province": "北京市", "city": "北京市", "district": "西城区", "year": "2018年", "level": "四级甲等", "level_type": "" }, "geometry": { "type": "Point", "coordinates": [ 116.371806970231361, 39.922708815338993 ] } },
{ "type": "Feature", "properties": { "id": 202, "name": "北京市垂杨柳医院", "type": "医院信息互联互通标准化成熟度测评", "location": "116.46042249511733,39.88436556017847", "province": "北京市", "city": "北京市", "district": "朝阳区", "year": "2018年", "level": "四级甲等", "level_type": "" }, "geometry": { "type": "Point", "coordinates": [ 116.460422495117328, 39.884365560178473 ] } },
{ "type": "Feature", "properties": { "id": 203, "name": "中国医学科学院阜外医院", "type": "医院信息互联互通标准化成熟度测评", "location": "116.44141478300295,39.87128541466321", "province": "北京市", "city": "北京市", "district": "朝阳区", "year": "2018年", "level": "四级甲等", "level_type": "" }, "geometry": { "type": "Point", "coordinates": [ 116.441414783002955, 39.871285414663213 ] } },
{ "type": "Feature", "properties": { "id": 204, "name": "首都医科大学附属北京天坛医院", "type": "医院信息互联互通标准化成熟度测评", "location": "116.39811244512713,39.875269505757544", "province": "北京市", "city": "北京市", "district": "东城区", "year": "2018年", "level": "四级甲等", "level_type": "" }, "geometry": { "type": "Point", "coordinates": [ 116.398112445127126, 39.875269505757544 ] } },
{ "type": "Feature", "properties": { "id": 205, "name": "首都医科大学宣武医院", "type": "医院信息互联互通标准化成熟度测评", "location": "116.3559475339634,39.89070392749848", "province": "北京市", "city": "北京市", "district": "西城区", "year": "2018年", "level": "四级甲等", "level_type": "" }, "geometry": { "type": "Point", "coordinates": [ 116.355947533963402, 39.890703927498478 ] } },
{ "type": "Feature", "properties": { "id": 206, "name": "中国医学科学院肿瘤医院", "type": "医院信息互联互通标准化成熟度测评", "location": "116.44141478300295,39.87128541466321", "province": "北京市", "city": "北京市", "district": "朝阳区", "year": "2018年", "level": "四级甲等", "level_type": "" }, "geometry": { "type": "Point", "coordinates": [ 116.441414783002955, 39.871285414663213 ] } },
{ "type": "Feature", "properties": { "id": 207, "name": "中国医学科学院整形外科医院", "type": "医院信息互联互通标准化成熟度测评", "location": "116.19349312955967,39.94124077245395", "province": "北京市", "city": "北京市", "district": "石景山区", "year": "2018年", "level": "四级甲等", "level_type": "" }, "geometry": { "type": "Point", "coordinates": [ 116.19349312955967, 39.941240772453952 ] } },
{ "type": "Feature", "properties": { "id": 208, "name": "北京市门头沟区医院", "type": "医院信息互联互通标准化成熟度测评", "location": "116.09540553238601,39.94403857710852", "province": "北京市", "city": "北京市", "district": "门头沟区", "year": "2018年", "level": "三级", "level_type": "" }, "geometry": { "type": "Point", "coordinates": [ 116.09540553238601, 39.944038577108522 ] } },
{ "type": "Feature", "properties": { "id": 209, "name": "天津市第三中心医院", "type": "医院信息互联互通标准化成熟度测评", "location": "117.24220244683151,39.10944609679792", "province": "天津市", "city": "天津市", "district": "河东区", "year": "2018年", "level": "四级甲等", "level_type": "" }, "geometry": { "type": "Point", "coordinates": [ 117.242202446831513, 39.109446096797917 ] } },
{ "type": "Feature", "properties": { "id": 210, "name": "河北医科大学第二医院", "type": "医院信息互联互通标准化成熟度测评", "location": "114.47608894722384,38.058115701716765", "province": "河北省", "city": "石家庄市", "district": "新华区", "year": "2018年", "level": "四级甲等", "level_type": "" }, "geometry": { "type": "Point", "coordinates": [ 114.476088947223843, 38.058115701716765 ] } },
{ "type": "Feature", "properties": { "id": 211, "name": "沧州市中心医院", "type": "医院信息互联互通标准化成熟度测评", "location": "116.84045907135283,38.311677308830674", "province": "河北省", "city": "沧州市", "district": "运河区", "year": "2018年", "level": "四级甲等", "level_type": "" }, "geometry": { "type": "Point", "coordinates": [ 116.840459071352825, 38.311677308830674 ] } },
{ "type": "Feature", "properties": { "id": 212, "name": "山西医科大学第一医院", "type": "医院信息互联互通标准化成熟度测评", "location": "112.54910587770114,37.852822545696036", "province": "山西省", "city": "太原市", "district": "迎泽区", "year": "2018年", "level": "四级甲等", "level_type": "" }, "geometry": { "type": "Point", "coordinates": [ 112.549105877701138, 37.852822545696036 ] } },
{ "type": "Feature", "properties": { "id": 213, "name": "内蒙古自治区人民医院", "type": "医院信息互联互通标准化成熟度测评", "location": "111.68731045914451,40.815498966222385", "province": "内蒙古自治区", "city": "呼和浩特市", "district": "赛罕区", "year": "2018年", "level": "四级甲等", "level_type": "" }, "geometry": { "type": "Point", "coordinates": [ 111.687310459144513, 40.815498966222385 ] } },
{ "type": "Feature", "properties": { "id": 214, "name": "赤峰市医院", "type": "医院信息互联互通标准化成熟度测评", "location": "118.94729997574096,42.26841049045112", "province": "内蒙古自治区", "city": "赤峰市", "district": "红山区", "year": "2018年", "level": "四级甲等", "level_type": "" }, "geometry": { "type": "Point", "coordinates": [ 118.947299975740961, 42.268410490451117 ] } },
{ "type": "Feature", "properties": { "id": 215, "name": "赤峰学院附属医院", "type": "医院信息互联互通标准化成熟度测评", "location": "118.9437231670519,42.265203951606516", "province": "内蒙古自治区", "city": "赤峰市", "district": "红山区", "year": "2018年", "level": "四级甲等", "level_type": "" }, "geometry": { "type": "Point", "coordinates": [ 118.9437231670519, 42.265203951606516 ] } },
{ "type": "Feature", "properties": { "id": 216, "name": "大连医科大学附属第二医院", "type": "医院信息互联互通标准化成熟度测评", "location": "121.56539211347649,38.881915859893354", "province": "辽宁省", "city": "大连市", "district": "沙河口区", "year": "2018年", "level": "四级甲等", "level_type": "" }, "geometry": { "type": "Point", "coordinates": [ 121.565392113476491, 38.881915859893354 ] } },
{ "type": "Feature", "properties": { "id": 217, "name": "锦州医科大学附属第一医院", "type": "医院信息互联互通标准化成熟度测评", "location": "121.12443123066187,41.132881154355516", "province": "辽宁省", "city": "锦州市", "district": "古塔区", "year": "2018年", "level": "四级甲等", "level_type": "" }, "geometry": { "type": "Point", "coordinates": [ 121.12443123066187, 41.132881154355516 ] } },
{ "type": "Feature", "properties": { "id": 218, "name": "吉林大学第一医院", "type": "医院信息互联互通标准化成熟度测评", "location": "125.2968899669458,43.87678687092266", "province": "吉林省", "city": "长春市", "district": "朝阳区", "year": "2018年", "level": "四级甲等", "level_type": "" }, "geometry": { "type": "Point", "coordinates": [ 125.296889966945798, 43.876786870922658 ] } },
{ "type": "Feature", "properties": { "id": 219, "name": "吉林大学第二医院", "type": "医院信息互联互通标准化成熟度测评", "location": "125.32544917305131,43.885383777578795", "province": "吉林省", "city": "长春市", "district": "南关区", "year": "2018年", "level": "四级甲等", "level_type": "" }, "geometry": { "type": "Point", "coordinates": [ 125.325449173051311, 43.885383777578795 ] } },
{ "type": "Feature", "properties": { "id": 220, "name": "上海市浦东新区浦南医院", "type": "医院信息互联互通标准化成熟度测评", "location": "121.50552872106388,31.194615679786846", "province": "上海市", "city": "上海市", "district": "浦东新区", "year": "2018年", "level": "四级甲等", "level_type": "" }, "geometry": { "type": "Point", "coordinates": [ 121.505528721063882, 31.194615679786846 ] } },
{ "type": "Feature", "properties": { "id": 221, "name": "上海市第七人民医院", "type": "医院信息互联互通标准化成熟度测评", "location": "121.57453822890487,31.34497094899549", "province": "上海市", "city": "上海市", "district": "浦东新区", "year": "2018年", "level": "四级甲等", "level_type": "" }, "geometry": { "type": "Point", "coordinates": [ 121.574538228904871, 31.344970948995488 ] } },
{ "type": "Feature", "properties": { "id": 222, "name": "上海市普陀区中心医院", "type": "医院信息互联互通标准化成熟度测评", "location": "121.39950670667595,31.24335715025674", "province": "上海市", "city": "上海市", "district": "普陀区", "year": "2018年", "level": "四级甲等", "level_type": "" }, "geometry": { "type": "Point", "coordinates": [ 121.39950670667595, 31.243357150256742 ] } },
{ "type": "Feature", "properties": { "id": 223, "name": "上海市杨浦区中心医院", "type": "医院信息互联互通标准化成熟度测评", "location": "121.54447578152798,31.27372075426207", "province": "上海市", "city": "上海市", "district": "杨浦区", "year": "2018年", "level": "四级甲等", "level_type": "" }, "geometry": { "type": "Point", "coordinates": [ 121.544475781527979, 31.273720754262069 ] } },
{ "type": "Feature", "properties": { "id": 224, "name": "复旦大学附属妇产科医院", "type": "医院信息互联互通标准化成熟度测评", "location": "120.27330660248269,31.89960264132777", "province": "江苏省", "city": "无锡市", "district": "江阴市", "year": "2018年", "level": "四级甲等", "level_type": "" }, "geometry": { "type": "Point", "coordinates": [ 120.273306602482691, 31.899602641327771 ] } },
{ "type": "Feature", "properties": { "id": 225, "name": "复旦大学附属华东医院", "type": "医院信息互联互通标准化成熟度测评", "location": "121.43691868984396,31.220220877299912", "province": "上海市", "city": "上海市", "district": "静安区", "year": "2018年", "level": "四级甲等", "level_type": "" }, "geometry": { "type": "Point", "coordinates": [ 121.436918689843964, 31.220220877299912 ] } },
{ "type": "Feature", "properties": { "id": 226, "name": "上海交通大学医学院附属精神卫生中心", "type": "医院信息互联互通标准化成熟度测评", "location": "121.44423958042009,31.189190525085117", "province": "上海市", "city": "上海市", "district": "徐汇区", "year": "2018年", "level": "四级甲等", "level_type": "" }, "geometry": { "type": "Point", "coordinates": [ 121.444239580420088, 31.189190525085117 ] } },
{ "type": "Feature", "properties": { "id": 227, "name": "上海交通大学医学院附属仁济医院", "type": "医院信息互联互通标准化成熟度测评", "location": "121.51823876244227,31.209600015171524", "province": "上海市", "city": "上海市", "district": "浦东新区", "year": "2018年", "level": "四级甲等", "level_type": "" }, "geometry": { "type": "Point", "coordinates": [ 121.518238762442266, 31.209600015171524 ] } },
{ "type": "Feature", "properties": { "id": 228, "name": "上海交通大学医学院附属新华医院", "type": "医院信息互联互通标准化成熟度测评", "location": "121.5134267451113,31.275304665852996", "province": "上海市", "city": "上海市", "district": "杨浦区", "year": "2018年", "level": "四级甲等", "level_type": "" }, "geometry": { "type": "Point", "coordinates": [ 121.513426745111303, 31.275304665852996 ] } },
{ "type": "Feature", "properties": { "id": 229, "name": "江苏省苏北人民医院", "type": "医院信息互联互通标准化成熟度测评", "location": "118.75800908445024,32.06374802159281", "province": "江苏省", "city": [ ], "district": [ ], "year": "2018年", "level": "四级甲等", "level_type": "" }, "geometry": { "type": "Point", "coordinates": [ 118.758009084450237, 32.063748021592808 ] } },
{ "type": "Feature", "properties": { "id": 230, "name": "连云港市第一人民医院", "type": "医院信息互联互通标准化成熟度测评", "location": "119.17701223756228,34.60712554324226", "province": "江苏省", "city": "连云港市", "district": "海州区", "year": "2018年", "level": "四级甲等", "level_type": "" }, "geometry": { "type": "Point", "coordinates": [ 119.17701223756228, 34.607125543242262 ] } },
{ "type": "Feature", "properties": { "id": 231, "name": "东南大学附属中大医院", "type": "医院信息互联互通标准化成熟度测评", "location": "118.77053476162594,32.07526034460712", "province": "江苏省", "city": "南京市", "district": "鼓楼区", "year": "2018年", "level": "四级甲等", "level_type": "" }, "geometry": { "type": "Point", "coordinates": [ 118.770534761625939, 32.075260344607123 ] } },
{ "type": "Feature", "properties": { "id": 232, "name": "南京江北人民医院", "type": "医院信息互联互通标准化成熟度测评", "location": "118.75096640173288,32.236914844896795", "province": "江苏省", "city": "南京市", "district": "六合区", "year": "2018年", "level": "四级甲等", "level_type": "" }, "geometry": { "type": "Point", "coordinates": [ 118.750966401732882, 32.236914844896795 ] } },
{ "type": "Feature", "properties": { "id": 233, "name": "南通市妇幼保健院", "type": "医院信息互联互通标准化成熟度测评", "location": "120.90296861840295,31.981884247049855", "province": "江苏省", "city": "南通市", "district": "崇川区", "year": "2018年", "level": "四级甲等", "level_type": "" }, "geometry": { "type": "Point", "coordinates": [ 120.902968618402952, 31.981884247049855 ] } },
{ "type": "Feature", "properties": { "id": 234, "name": "苏州大学附属第一医院", "type": "医院信息互联互通标准化成熟度测评", "location": "120.63001558834087,31.30630221434298", "province": "江苏省", "city": "苏州市", "district": "姑苏区", "year": "2018年", "level": "四级甲等", "level_type": "" }, "geometry": { "type": "Point", "coordinates": [ 120.630015588340868, 31.306302214342981 ] } },
{ "type": "Feature", "properties": { "id": 235, "name": "无锡市第三人民医院", "type": "医院信息互联互通标准化成熟度测评", "location": "120.29136883074072,31.594736855058795", "province": "江苏省", "city": "无锡市", "district": "梁溪区", "year": "2018年", "level": "四级甲等", "level_type": "" }, "geometry": { "type": "Point", "coordinates": [ 120.291368830740723, 31.594736855058795 ] } },
{ "type": "Feature", "properties": { "id": 236, "name": "宜兴市人民医院", "type": "医院信息互联互通标准化成熟度测评", "location": "119.81482645328369,31.362714694746725", "province": "江苏省", "city": "无锡市", "district": "宜兴市", "year": "2018年", "level": "四级甲等", "level_type": "" }, "geometry": { "type": "Point", "coordinates": [ 119.814826453283686, 31.362714694746725 ] } },
{ "type": "Feature", "properties": { "id": 237, "name": "镇江市第一人民医院", "type": "医院信息互联互通标准化成熟度测评", "location": "119.43984172696965,32.20880201593863", "province": "江苏省", "city": "镇江市", "district": "润州区", "year": "2018年", "level": "四级甲等", "level_type": "" }, "geometry": { "type": "Point", "coordinates": [ 119.439841726969647, 32.20880201593863 ] } },
{ "type": "Feature", "properties": { "id": 238, "name": "无锡市第二人民医院", "type": "医院信息互联互通标准化成熟度测评", "location": "120.30030918002505,31.5713655468396", "province": "江苏省", "city": "无锡市", "district": "梁溪区", "year": "2018年", "level": "四级甲等", "level_type": "" }, "geometry": { "type": "Point", "coordinates": [ 120.300309180025053, 31.571365546839601 ] } },
{ "type": "Feature", "properties": { "id": 239, "name": "浙江省人民医院", "type": "医院信息互联互通标准化成熟度测评", "location": "120.16290031521332,30.287880510656226", "province": "浙江省", "city": "杭州市", "district": "下城区", "year": "2018年", "level": "四级甲等", "level_type": "" }, "geometry": { "type": "Point", "coordinates": [ 120.162900315213321, 30.287880510656226 ] } },
{ "type": "Feature", "properties": { "id": 240, "name": "浙江大学医学院附属第二医院", "type": "医院信息互联互通标准化成熟度测评", "location": "120.17298120445297,30.25427455185029", "province": "浙江省", "city": "杭州市", "district": "上城区", "year": "2018年", "level": "四级甲等", "level_type": "" }, "geometry": { "type": "Point", "coordinates": [ 120.172981204452967, 30.25427455185029 ] } },
{ "type": "Feature", "properties": { "id": 241, "name": "浙江大学医学院附属邵逸夫医院", "type": "医院信息互联互通标准化成熟度测评", "location": "120.19799100626564,30.258835561777385", "province": "浙江省", "city": "杭州市", "district": "江干区", "year": "2018年", "level": "四级甲等", "level_type": "" }, "geometry": { "type": "Point", "coordinates": [ 120.197991006265639, 30.258835561777385 ] } },
{ "type": "Feature", "properties": { "id": 242, "name": "浙江大学医学院附属儿童医院", "type": "医院信息互联互通标准化成熟度测评", "location": "120.16106994971548,30.26285648666079", "province": "浙江省", "city": "杭州市", "district": "下城区", "year": "2018年", "level": "四级甲等", "level_type": "" }, "geometry": { "type": "Point", "coordinates": [ 120.161069949715483, 30.262856486660791 ] } },
{ "type": "Feature", "properties": { "id": 243, "name": "浙江大学医学院附属妇产科医院", "type": "医院信息互联互通标准化成熟度测评", "location": "120.16360285635722,30.25861358839962", "province": "浙江省", "city": "杭州市", "district": "上城区", "year": "2018年", "level": "四级甲等", "level_type": "" }, "geometry": { "type": "Point", "coordinates": [ 120.163602856357215, 30.258613588399619 ] } },
{ "type": "Feature", "properties": { "id": 244, "name": "浙江省中医院", "type": "医院信息互联互通标准化成熟度测评", "location": "120.16115488827174,30.254646336333145", "province": "浙江省", "city": "杭州市", "district": "上城区", "year": "2018年", "level": "四级甲等", "level_type": "" }, "geometry": { "type": "Point", "coordinates": [ 120.161154888271739, 30.254646336333145 ] } },
{ "type": "Feature", "properties": { "id": 245, "name": "杭州市红十字会医院", "type": "医院信息互联互通标准化成熟度测评", "location": "120.18248892649179,30.267743844433735", "province": "浙江省", "city": "杭州市", "district": "下城区", "year": "2018年", "level": "四级甲等", "level_type": "" }, "geometry": { "type": "Point", "coordinates": [ 120.182488926491786, 30.267743844433735 ] } },
{ "type": "Feature", "properties": { "id": 246, "name": "杭州市中医院", "type": "医院信息互联互通标准化成熟度测评", "location": "120.17535887758372,30.28276238604335", "province": "浙江省", "city": "杭州市", "district": "下城区", "year": "2018年", "level": "四级甲等", "level_type": "" }, "geometry": { "type": "Point", "coordinates": [ 120.175358877583719, 30.282762386043348 ] } },
{ "type": "Feature", "properties": { "id": 247, "name": "杭州市妇产科医院", "type": "医院信息互联互通标准化成熟度测评", "location": "120.19310553306114,30.230731954352464", "province": "浙江省", "city": "杭州市", "district": "上城区", "year": "2018年", "level": "四级甲等", "level_type": "" }, "geometry": { "type": "Point", "coordinates": [ 120.193105533061143, 30.230731954352464 ] } },
{ "type": "Feature", "properties": { "id": 248, "name": "杭州市第三人民医院", "type": "医院信息互联互通标准化成熟度测评", "location": "120.17318125185764,30.24882035828745", "province": "浙江省", "city": "杭州市", "district": "上城区", "year": "2018年", "level": "四级甲等", "level_type": "" }, "geometry": { "type": "Point", "coordinates": [ 120.173181251857642, 30.24882035828745 ] } },
{ "type": "Feature", "properties": { "id": 249, "name": "杭州市西溪医院", "type": "医院信息互联互通标准化成熟度测评", "location": "120.0401219810891,30.238933429515935", "province": "浙江省", "city": "杭州市", "district": "西湖区", "year": "2018年", "level": "四级甲等", "level_type": "" }, "geometry": { "type": "Point", "coordinates": [ 120.040121981089101, 30.238933429515935 ] } },
{ "type": "Feature", "properties": { "id": 250, "name": "杭州市第七人民医院", "type": "医院信息互联互通标准化成熟度测评", "location": "120.10817145289013,30.27244690118313", "province": "浙江省", "city": "杭州市", "district": "西湖区", "year": "2018年", "level": "四级甲等", "level_type": "" }, "geometry": { "type": "Point", "coordinates": [ 120.108171452890133, 30.27244690118313 ] } },
{ "type": "Feature", "properties": { "id": 251, "name": "宁波市第一医院", "type": "医院信息互联互通标准化成熟度测评", "location": "121.54284551344124,29.8703628572741", "province": "浙江省", "city": "宁波市", "district": "海曙区", "year": "2018年", "level": "四级甲等", "level_type": "" }, "geometry": { "type": "Point", "coordinates": [ 121.542845513441236, 29.870362857274099 ] } },
{ "type": "Feature", "properties": { "id": 252, "name": "宁波大学医学院附属医院", "type": "医院信息互联互通标准化成熟度测评", "location": "121.55654628788886,29.885558835830185", "province": "浙江省", "city": "宁波市", "district": "江北区", "year": "2018年", "level": "四级甲等", "level_type": "" }, "geometry": { "type": "Point", "coordinates": [ 121.556546287888864, 29.885558835830185 ] } },
{ "type": "Feature", "properties": { "id": 253, "name": "宁波市鄞州人民医院", "type": "医院信息互联互通标准化成熟度测评", "location": "121.5692409610621,29.86538728554624", "province": "浙江省", "city": "宁波市", "district": "鄞州区", "year": "2018年", "level": "四级甲等", "level_type": "" }, "geometry": { "type": "Point", "coordinates": [ 121.569240961062107, 29.865387285546241 ] } },
{ "type": "Feature", "properties": { "id": 254, "name": "宁波市鄞州区第二医院", "type": "医院信息互联互通标准化成熟度测评", "location": "121.55161853987835,29.824304823193668", "province": "浙江省", "city": "宁波市", "district": "鄞州区", "year": "2018年", "level": "四级甲等", "level_type": "" }, "geometry": { "type": "Point", "coordinates": [ 121.551618539878348, 29.824304823193668 ] } },
{ "type": "Feature", "properties": { "id": 255, "name": "宁波市第四医院", "type": "医院信息互联互通标准化成熟度测评", "location": "121.88536614642403,29.473483994965886", "province": "浙江省", "city": "宁波市", "district": "象山县", "year": "2018年", "level": "四级甲等", "level_type": "" }, "geometry": { "type": "Point", "coordinates": [ 121.885366146424033, 29.473483994965886 ] } },
{ "type": "Feature", "properties": { "id": 256, "name": "浙江省台州医院", "type": "医院信息互联互通标准化成熟度测评", "location": "121.10942497783542,28.849798867023384", "province": "浙江省", "city": "台州市", "district": "临海市", "year": "2018年", "level": "四级甲等", "level_type": "" }, "geometry": { "type": "Point", "coordinates": [ 121.109424977835417, 28.849798867023384 ] } },
{ "type": "Feature", "properties": { "id": 257, "name": "台州市立医院", "type": "医院信息互联互通标准化成熟度测评", "location": "121.43542295471069,28.678530892880374", "province": "浙江省", "city": "台州市", "district": "椒江区", "year": "2018年", "level": "四级甲等", "level_type": "" }, "geometry": { "type": "Point", "coordinates": [ 121.435422954710688, 28.678530892880374 ] } },
{ "type": "Feature", "properties": { "id": 258, "name": "金华市中心医院", "type": "医院信息互联互通标准化成熟度测评", "location": "119.65437289490372,29.108310356614", "province": "浙江省", "city": "金华市", "district": "婺城区", "year": "2018年", "level": "四级甲等", "level_type": "" }, "geometry": { "type": "Point", "coordinates": [ 119.654372894903716, 29.108310356613998 ] } },
{ "type": "Feature", "properties": { "id": 259, "name": "福建医科大学附属协和医院", "type": "医院信息互联互通标准化成熟度测评", "location": "119.30007506466944,26.08125383366969", "province": "福建省", "city": "福州市", "district": "鼓楼区", "year": "2018年", "level": "四级甲等", "level_type": "" }, "geometry": { "type": "Point", "coordinates": [ 119.300075064669443, 26.081253833669692 ] } },
{ "type": "Feature", "properties": { "id": 260, "name": "厦门市第三医院", "type": "医院信息互联互通标准化成熟度测评", "location": "118.14227870978546,24.708530718213535", "province": "福建省", "city": "厦门市", "district": "同安区", "year": "2018年", "level": "四级甲等", "level_type": "" }, "geometry": { "type": "Point", "coordinates": [ 118.142278709785458, 24.708530718213535 ] } },
{ "type": "Feature", "properties": { "id": 261, "name": "厦门医学院附属口腔医院", "type": "医院信息互联互通标准化成熟度测评", "location": "118.11384210689965,24.476523047631133", "province": "福建省", "city": "厦门市", "district": "思明区", "year": "2018年", "level": "四级甲等", "level_type": "" }, "geometry": { "type": "Point", "coordinates": [ 118.113842106899654, 24.476523047631133 ] } },
{ "type": "Feature", "properties": { "id": 262, "name": "南昌大学第二附属医院", "type": "医院信息互联互通标准化成熟度测评", "location": "115.89719164572216,28.68576218829749", "province": "江西省", "city": "南昌市", "district": "东湖区", "year": "2018年", "level": "四级甲等", "level_type": "" }, "geometry": { "type": "Point", "coordinates": [ 115.89719164572216, 28.685762188297488 ] } },
{ "type": "Feature", "properties": { "id": 263, "name": "昌乐县人民医院", "type": "医院信息互联互通标准化成熟度测评", "location": "118.83441018822677,36.704807778093944", "province": "山东省", "city": "潍坊市", "district": "昌乐县", "year": "2018年", "level": "四级甲等", "level_type": "" }, "geometry": { "type": "Point", "coordinates": [ 118.834410188226769, 36.704807778093944 ] } },
{ "type": "Feature", "properties": { "id": 264, "name": "菏泽市立医院", "type": "医院信息互联互通标准化成熟度测评", "location": "115.43411213203126,35.243758386290644", "province": "山东省", "city": "菏泽市", "district": "牡丹区", "year": "2018年", "level": "四级甲等", "level_type": "" }, "geometry": { "type": "Point", "coordinates": [ 115.43411213203126, 35.243758386290644 ] } },
{ "type": "Feature", "properties": { "id": 265, "name": "济南市妇幼保健院", "type": "医院信息互联互通标准化成熟度测评", "location": "116.99661648837265,36.653968983650074", "province": "山东省", "city": "济南市", "district": "市中区", "year": "2018年", "level": "四级甲等", "level_type": "" }, "geometry": { "type": "Point", "coordinates": [ 116.996616488372652, 36.653968983650074 ] } },
{ "type": "Feature", "properties": { "id": 266, "name": "聊城市人民医院", "type": "医院信息互联互通标准化成熟度测评", "location": "115.97271024987536,36.458195045326285", "province": "山东省", "city": "聊城市", "district": "东昌府区", "year": "2018年", "level": "四级甲等", "level_type": "" }, "geometry": { "type": "Point", "coordinates": [ 115.972710249875362, 36.458195045326285 ] } },
{ "type": "Feature", "properties": { "id": 267, "name": "临沂市人民医院", "type": "医院信息互联互通标准化成熟度测评", "location": "118.31028766412652,35.0952166805003", "province": "山东省", "city": "临沂市", "district": "兰山区", "year": "2018年", "level": "四级甲等", "level_type": "" }, "geometry": { "type": "Point", "coordinates": [ 118.31028766412652, 35.0952166805003 ] } },
{ "type": "Feature", "properties": { "id": 268, "name": "山东医学高等专科学校附属医院", "type": "医院信息互联互通标准化成熟度测评", "location": "117.17466334494817,36.717893120081584", "province": "山东省", "city": "济南市", "district": "历城区", "year": "2018年", "level": "三级", "level_type": "" }, "geometry": { "type": "Point", "coordinates": [ 117.174663344948172, 36.717893120081584 ] } },
{ "type": "Feature", "properties": { "id": 269, "name": "郑州市中心医院", "type": "医院信息互联互通标准化成熟度测评", "location": "113.6072780995882,34.75158846554058", "province": "河南省", "city": "郑州市", "district": "中原区", "year": "2018年", "level": "四级甲等", "level_type": "" }, "geometry": { "type": "Point", "coordinates": [ 113.6072780995882, 34.751588465540578 ] } },
{ "type": "Feature", "properties": { "id": 270, "name": "宜昌市中心人民医院", "type": "医院信息互联互通标准化成熟度测评", "location": "111.30100637675257,30.685637081264307", "province": "湖北省", "city": "宜昌市", "district": "伍家岗区", "year": "2018年", "level": "四级甲等", "level_type": "" }, "geometry": { "type": "Point", "coordinates": [ 111.301006376752568, 30.685637081264307 ] } },
{ "type": "Feature", "properties": { "id": 271, "name": "宜昌市第一人民医院", "type": "医院信息互联互通标准化成熟度测评", "location": "111.28342339229611,30.69751506261418", "province": "湖北省", "city": "宜昌市", "district": "西陵区", "year": "2018年", "level": "四级甲等", "level_type": "" }, "geometry": { "type": "Point", "coordinates": [ 111.283423392296115, 30.69751506261418 ] } },
{ "type": "Feature", "properties": { "id": 272, "name": "英山县人民医院", "type": "医院信息互联互通标准化成熟度测评", "location": "115.65638578853519,30.729137658740513", "province": "湖北省", "city": "黄冈市", "district": "英山县", "year": "2018年", "level": "四级甲等", "level_type": "" }, "geometry": { "type": "Point", "coordinates": [ 115.656385788535189, 30.729137658740513 ] } },
{ "type": "Feature", "properties": { "id": 273, "name": "广东省第二人民医院", "type": "医院信息互联互通标准化成熟度测评", "location": "113.32831761659612,23.096808279943485", "province": "广东省", "city": "广州市", "district": "海珠区", "year": "2018年", "level": "四级甲等", "level_type": "" }, "geometry": { "type": "Point", "coordinates": [ 113.328317616596124, 23.096808279943485 ] } },
{ "type": "Feature", "properties": { "id": 274, "name": "广东医科大学附属医院", "type": "医院信息互联互通标准化成熟度测评", "location": "113.25078628289116,23.136734941300976", "province": "广东省", "city": "广州市", "district": "越秀区", "year": "2018年", "level": "四级甲等", "level_type": "" }, "geometry": { "type": "Point", "coordinates": [ 113.250786282891156, 23.136734941300976 ] } },
{ "type": "Feature", "properties": { "id": 275, "name": "广州市番禺区何贤纪念医院", "type": "医院信息互联互通标准化成熟度测评", "location": "113.3668055226273,22.937250075921373", "province": "广东省", "city": "广州市", "district": "番禺区", "year": "2018年", "level": "四级甲等", "level_type": "" }, "geometry": { "type": "Point", "coordinates": [ 113.366805522627303, 22.937250075921373 ] } },
{ "type": "Feature", "properties": { "id": 276, "name": "广州中医药大学第一附属医院", "type": "医院信息互联互通标准化成熟度测评", "location": "113.25911649583101,23.159766569256295", "province": "广东省", "city": "广州市", "district": "白云区", "year": "2018年", "level": "四级甲等", "level_type": "" }, "geometry": { "type": "Point", "coordinates": [ 113.259116495831009, 23.159766569256295 ] } },
{ "type": "Feature", "properties": { "id": 277, "name": "南方医科大学南方医院", "type": "医院信息互联互通标准化成熟度测评", "location": "114.35595947879278,23.030394698188864", "province": "广东省", "city": "惠州市", "district": "惠城区", "year": "2018年", "level": "四级甲等", "level_type": "" }, "geometry": { "type": "Point", "coordinates": [ 114.355959478792784, 23.030394698188864 ] } },
{ "type": "Feature", "properties": { "id": 278, "name": "粤北人民医院", "type": "医院信息互联互通标准化成熟度测评", "location": "113.59160410342687,24.813420665647357", "province": "广东省", "city": "韶关市", "district": "浈江区", "year": "2018年", "level": "四级甲等", "level_type": "" }, "geometry": { "type": "Point", "coordinates": [ 113.591604103426874, 24.813420665647357 ] } },
{ "type": "Feature", "properties": { "id": 279, "name": "珠海市人民医院", "type": "医院信息互联互通标准化成熟度测评", "location": "113.5704680733421,22.27686117630876", "province": "广东省", "city": "珠海市", "district": "香洲区", "year": "2018年", "level": "四级甲等", "level_type": "" }, "geometry": { "type": "Point", "coordinates": [ 113.570468073342099, 22.27686117630876 ] } },
{ "type": "Feature", "properties": { "id": 280, "name": "深圳市儿童医院", "type": "医院信息互联互通标准化成熟度测评", "location": "114.04935398040952,22.5501601592938", "province": "广东省", "city": "深圳市", "district": "福田区", "year": "2018年", "level": "四级甲等", "level_type": "" }, "geometry": { "type": "Point", "coordinates": [ 114.049353980409521, 22.550160159293799 ] } },
{ "type": "Feature", "properties": { "id": 281, "name": "深圳市中医院", "type": "医院信息互联互通标准化成熟度测评", "location": "114.11211335644946,22.543868020498053", "province": "广东省", "city": "深圳市", "district": "罗湖区", "year": "2018年", "level": "四级甲等", "level_type": "" }, "geometry": { "type": "Point", "coordinates": [ 114.112113356449456, 22.543868020498053 ] } },
{ "type": "Feature", "properties": { "id": 282, "name": "深圳市人民医院", "type": "医院信息互联互通标准化成熟度测评", "location": "114.12223900200449,22.559614595745536", "province": "广东省", "city": "深圳市", "district": "罗湖区", "year": "2018年", "level": "四级甲等", "level_type": "" }, "geometry": { "type": "Point", "coordinates": [ 114.122239002004491, 22.559614595745536 ] } },
{ "type": "Feature", "properties": { "id": 283, "name": "重庆三峡中心医院", "type": "医院信息互联互通标准化成熟度测评", "location": "108.37940267380736,30.807194795809448", "province": "重庆市", "city": "重庆市", "district": "万州区", "year": "2018年", "level": "四级甲等", "level_type": "" }, "geometry": { "type": "Point", "coordinates": [ 108.379402673807363, 30.807194795809448 ] } },
{ "type": "Feature", "properties": { "id": 284, "name": "成都市第三人民医院", "type": "医院信息互联互通标准化成熟度测评", "location": "104.06046147105079,30.671659664124196", "province": "四川省", "city": "成都市", "district": "青羊区", "year": "2018年", "level": "四级甲等", "level_type": "" }, "geometry": { "type": "Point", "coordinates": [ 104.060461471050786, 30.671659664124196 ] } },
{ "type": "Feature", "properties": { "id": 285, "name": "广元市精神卫生中心", "type": "医院信息互联互通标准化成熟度测评", "location": "105.79125165559978,32.42327404713151", "province": "四川省", "city": "广元市", "district": "利州区", "year": "2018年", "level": "四级甲等", "level_type": "" }, "geometry": { "type": "Point", "coordinates": [ 105.79125165559978, 32.423274047131507 ] } },
{ "type": "Feature", "properties": { "id": 286, "name": "兰州大学第二医院", "type": "医院信息互联互通标准化成熟度测评", "location": "103.81016569362095,36.061476008713264", "province": "甘肃省", "city": "兰州市", "district": "城关区", "year": "2018年", "level": "四级甲等", "level_type": "" }, "geometry": { "type": "Point", "coordinates": [ 103.810165693620945, 36.061476008713264 ] } },
{ "type": "Feature", "properties": { "id": 287, "name": "新疆维吾尔自治区人民医院", "type": "医院信息互联互通标准化成熟度测评", "location": "87.61097798109837,43.78279060599145", "province": "新疆维吾尔自治区", "city": "乌鲁木齐市", "district": "天山区", "year": "2018年", "level": "四级甲等", "level_type": "" }, "geometry": { "type": "Point", "coordinates": [ 87.610977981098372, 43.782790605991451 ] } },
{ "type": "Feature", "properties": { "id": 288, "name": "新疆医科大学第一附属医院", "type": "医院信息互联互通标准化成熟度测评", "location": "87.57846668016728,43.83806775000925", "province": "新疆维吾尔自治区", "city": "乌鲁木齐市", "district": "新市区", "year": "2018年", "level": "四级甲等", "level_type": "" }, "geometry": { "type": "Point", "coordinates": [ 87.578466680167281, 43.838067750009252 ] } },
{ "type": "Feature", "properties": { "id": 289, "name": "中日友好医院", "type": "医院信息互联互通标准化成熟度测评", "location": "116.42064140681678,39.97273149952836", "province": "北京市", "city": "北京市", "district": "朝阳区", "year": "2015年", "level": "四级甲等", "level_type": "" }, "geometry": { "type": "Point", "coordinates": [ 116.420641406816785, 39.972731499528358 ] } },
{ "type": "Feature", "properties": { "id": 290, "name": "中国福利会国际和平妇幼保健院", "type": "医院信息互联互通标准化成熟度测评", "location": "121.43400785542444,31.19805575875332", "province": "上海市", "city": "上海市", "district": "徐汇区", "year": "2016年", "level": "四级甲等", "level_type": "" }, "geometry": { "type": "Point", "coordinates": [ 121.43400785542444, 31.19805575875332 ] } },
{ "type": "Feature", "properties": { "id": 291, "name": "北京大学深圳医院", "type": "医院信息互联互通标准化成熟度测评", "location": "114.04397804074824,22.559085188744948", "province": "广东省", "city": "深圳市", "district": "福田区", "year": "2017年", "level": "四级甲等", "level_type": "" }, "geometry": { "type": "Point", "coordinates": [ 114.043978040748243, 22.559085188744948 ] } },
{ "type": "Feature", "properties": { "id": 292, "name": "中国中医科学院广安门医院", "type": "医院信息互联互通标准化成熟度测评", "location": "116.34594390044406,39.888907935836876", "province": "北京市", "city": "北京市", "district": "西城区", "year": "2018年", "level": "五级乙等", "level_type": "" }, "geometry": { "type": "Point", "coordinates": [ 116.345943900444055, 39.888907935836876 ] } },
{ "type": "Feature", "properties": { "id": 293, "name": "中山大学中山眼科中心", "type": "医院信息互联互通标准化成熟度测评", "location": "113.28831853607848,23.136906228578894", "province": "广东省", "city": "广州市", "district": "越秀区", "year": "2018年", "level": "四级甲等", "level_type": "" }, "geometry": { "type": "Point", "coordinates": [ 113.288318536078478, 23.136906228578894 ] } }
]
}
